{"abancourt":{"code":"abancourt","name":"Abancourt","lat":49.68549,"lon":1.77386},"abbeville":{"code":"abbeville","name":"Abbeville","lat":50.10197,"lon":1.82423},"ablon":{"code":"ablon","name":"Ablon","lat":48.72511,"lon":2.41896},"accolay":{"code":"accolay","name":"Accolay","lat":47.65912,"lon":3.71302},"ach\u00e8res-grand-cormier":{"code":"ach\u00e8res-grand-cormier","name":"Ach\u00e8res-Grand-Cormier","lat":48.95535,"lon":2.09327},"ach\u00e8res-ville":{"code":"ach\u00e8res-ville","name":"Ach\u00e8res-Ville","lat":48.96934,"lon":2.07779},"acheux-franleu":{"code":"acheux-franleu","name":"Acheux-Franleu","lat":50.08245,"lon":1.65704},"achicourt":{"code":"achicourt","name":"Achicourt","lat":50.27832,"lon":2.76324},"achiet":{"code":"achiet","name":"Achiet","lat":50.13234,"lon":2.78046},"agay":{"code":"agay","name":"Agay","lat":43.43164,"lon":6.85666},"agde":{"code":"agde","name":"Agde","lat":43.31754,"lon":3.46575},"agen":{"code":"agen","name":"Agen","lat":44.20836,"lon":0.62031},"agonac":{"code":"agonac","name":"Agonac","lat":45.28649,"lon":0.74857},"aguilcourt-variscourt":{"code":"aguilcourt-variscourt","name":"Aguilcourt-Variscourt","lat":49.40793,"lon":3.97299},"aiguebelette-le-lac":{"code":"aiguebelette-le-lac","name":"Aiguebelette-le-Lac","lat":45.53634,"lon":5.81253},"aiguebelle":{"code":"aiguebelle","name":"Aiguebelle","lat":45.54351,"lon":6.30686},"aigueperse":{"code":"aigueperse","name":"Aigueperse","lat":46.01484,"lon":3.19788},"aigues-mortes":{"code":"aigues-mortes","name":"Aigues-Mortes","lat":43.57112,"lon":4.19112},"aigues-vives":{"code":"aigues-vives","name":"Aigues-Vives","lat":43.72672,"lon":4.19333},"aiguillon":{"code":"aiguillon","name":"Aiguillon","lat":44.29873,"lon":0.33517},"aillevillers":{"code":"aillevillers","name":"Aillevillers","lat":47.91356,"lon":6.33659},"ailly-sur-noye":{"code":"ailly-sur-noye","name":"Ailly-sur-Noye","lat":49.75458,"lon":2.36392},"ailly-sur-somme":{"code":"ailly-sur-somme","name":"Ailly-sur-Somme","lat":49.92832,"lon":2.20053},"aimargues":{"code":"aimargues","name":"Aimargues","lat":43.67857,"lon":4.20821},"aime-la-plagne":{"code":"aime-la-plagne","name":"Aime-La Plagne","lat":45.55435,"lon":6.6486},"aiserey":{"code":"aiserey","name":"Aiserey","lat":47.17011,"lon":5.15834},"aix-en-provence":{"code":"aix-en-provence","name":"Aix-en-Provence","lat":43.52324,"lon":5.44412},"aix-en-provence-tgv":{"code":"aix-en-provence-tgv","name":"Aix-en-Provence-TGV","lat":43.45527,"lon":5.31723},"aixe-sur-vienne":{"code":"aixe-sur-vienne","name":"Aixe-sur-Vienne","lat":45.79601,"lon":1.14686},"aix-la-marsalouse":{"code":"aix-la-marsalouse","name":"Aix-la-Marsalouse","lat":45.61402,"lon":2.39853},"aix-les-bains-le-revard":{"code":"aix-les-bains-le-revard","name":"Aix-les-Bains-Le Revard","lat":45.68947,"lon":5.90893},"alai":{"code":"alai","name":"Alai","lat":45.75174,"lon":4.77153},"albens":{"code":"albens","name":"Albens","lat":45.78613,"lon":5.94856},"albert":{"code":"albert","name":"Albert","lat":50.0052,"lon":2.64312},"albertville":{"code":"albertville","name":"Albertville","lat":45.6734,"lon":6.38326},"albias":{"code":"albias","name":"Albias","lat":44.09198,"lon":1.44489},"albi-madeleine":{"code":"albi-madeleine","name":"Albi-Madeleine","lat":43.93819,"lon":2.1408},"albi-ville":{"code":"albi-ville","name":"Albi-Ville","lat":43.92221,"lon":2.13725},"alen\u00e7on":{"code":"alen\u00e7on","name":"Alen\u00e7on","lat":48.43387,"lon":0.09904},"al\u00e8s":{"code":"al\u00e8s","name":"Al\u00e8s","lat":44.12813,"lon":4.08478},"alet-les-bains":{"code":"alet-les-bains","name":"Alet-les-Bains","lat":42.99722,"lon":2.25185},"allassac":{"code":"allassac","name":"Allassac","lat":45.25929,"lon":1.47299},"allenc":{"code":"allenc","name":"Allenc","lat":44.54168,"lon":3.66423},"alles-sur-dordogne":{"code":"alles-sur-dordogne","name":"Alles-sur-Dordogne","lat":44.86527,"lon":0.86939},"alleyras":{"code":"alleyras","name":"Alleyras","lat":44.91837,"lon":3.67295},"alli\u00e8res":{"code":"alli\u00e8res","name":"Alli\u00e8res","lat":46.01673,"lon":4.49499},"alouette-france":{"code":"alouette-france","name":"Alouette-France","lat":44.7933,"lon":-0.65986},"altkirch":{"code":"altkirch","name":"Altkirch","lat":47.6271,"lon":7.23959},"amagne-lucquy":{"code":"amagne-lucquy","name":"Amagne-Lucquy","lat":49.5237,"lon":4.4738},"ambazac":{"code":"ambazac","name":"Ambazac","lat":45.9526,"lon":1.40591},"amb\u00e9rieu":{"code":"amb\u00e9rieu","name":"Amb\u00e9rieu","lat":45.95395,"lon":5.34246},"ambilly":{"code":"ambilly","name":"Ambilly","lat":46.19467,"lon":6.22535},"amboise":{"code":"amboise","name":"Amboise","lat":47.42145,"lon":0.98112},"ambronay-priay":{"code":"ambronay-priay","name":"Ambronay-Priay","lat":46.01159,"lon":5.33816},"amiens":{"code":"amiens","name":"Amiens","lat":49.88993,"lon":2.30982},"amifontaine":{"code":"amifontaine","name":"Amifontaine","lat":49.48479,"lon":3.91056},"amilly-ouerray":{"code":"amilly-ouerray","name":"Amilly-Ouerray","lat":48.43813,"lon":1.38939},"amplepuis":{"code":"amplepuis","name":"Amplepuis","lat":45.97145,"lon":4.32579},"ancenis":{"code":"ancenis","name":"Ancenis","lat":47.36947,"lon":-1.17759},"anchamps":{"code":"anchamps","name":"Anchamps","lat":49.93038,"lon":4.67163},"anch\u00e9-voulon":{"code":"anch\u00e9-voulon","name":"Anch\u00e9-Voulon","lat":46.34964,"lon":0.25021},"ancy-sur-moselle":{"code":"ancy-sur-moselle","name":"Ancy-sur-Moselle","lat":49.05727,"lon":6.06276},"andelot-jura":{"code":"andelot-jura","name":"Andelot (Jura)","lat":46.85967,"lon":5.92344},"andilly":{"code":"andilly","name":"Andilly","lat":47.91292,"lon":5.50561},"andr\u00e9sy":{"code":"andr\u00e9sy","name":"Andr\u00e9sy","lat":48.97428,"lon":2.04836},"andr\u00e9zieux":{"code":"andr\u00e9zieux","name":"Andr\u00e9zieux","lat":45.52168,"lon":4.25526},"angers-ma\u00eetre-\u00c9cole":{"code":"angers-ma\u00eetre-\u00c9cole","name":"Angers-Ma\u00eetre-\u00c9cole","lat":47.46691,"lon":-0.53255},"angers-st-laud":{"code":"angers-st-laud","name":"Angers-St-Laud","lat":47.46444,"lon":-0.55694},"angerville":{"code":"angerville","name":"Angerville","lat":48.31141,"lon":2.00373},"angoul\u00eame":{"code":"angoul\u00eame","name":"Angoul\u00eame","lat":45.65394,"lon":0.16453},"angoulins-sur-mer":{"code":"angoulins-sur-mer","name":"Angoulins-sur-Mer","lat":46.1079,"lon":-1.11562},"anizy-pinon":{"code":"anizy-pinon","name":"Anizy-Pinon","lat":49.49587,"lon":3.44843},"annappes":{"code":"annappes","name":"Annappes","lat":50.62293,"lon":3.14475},"annecy":{"code":"annecy","name":"Annecy","lat":45.90273,"lon":6.12255},"annemasse":{"code":"annemasse","name":"Annemasse","lat":46.19963,"lon":6.23677},"anor":{"code":"anor","name":"Anor","lat":49.98502,"lon":4.09303},"anse":{"code":"anse","name":"Anse","lat":45.9395,"lon":4.71974},"anstaing":{"code":"anstaing","name":"Anstaing","lat":50.60388,"lon":3.19348},"anth\u00e9or-cap-roux":{"code":"anth\u00e9or-cap-roux","name":"Anth\u00e9or-Cap-Roux","lat":43.43514,"lon":6.89216},"antibes":{"code":"antibes","name":"Antibes","lat":43.58588,"lon":7.11942},"anvin":{"code":"anvin","name":"Anvin","lat":50.4457,"lon":2.25859},"anzeling":{"code":"anzeling","name":"Anzeling","lat":49.2624,"lon":6.45953},"apach-moselle":{"code":"apach-moselle","name":"Apach (Moselle)","lat":49.45862,"lon":6.37249},"appilly":{"code":"appilly","name":"Appilly","lat":49.58047,"lon":3.12113},"arbanats":{"code":"arbanats","name":"Arbanats","lat":44.6744,"lon":-0.39565},"arbois":{"code":"arbois","name":"Arbois","lat":46.91247,"lon":5.76477},"arcachon":{"code":"arcachon","name":"Arcachon","lat":44.6588,"lon":-1.16535},"arc-et-senans":{"code":"arc-et-senans","name":"Arc-et-Senans","lat":47.03018,"lon":5.7771},"arches":{"code":"arches","name":"Arches","lat":48.12035,"lon":6.52683},"arcy-sur-cure":{"code":"arcy-sur-cure","name":"Arcy-sur-Cure","lat":47.60088,"lon":3.76689},"arengosse":{"code":"arengosse","name":"Arengosse","lat":44.00673,"lon":-0.80947},"argel\u00e8s-sur-mer":{"code":"argel\u00e8s-sur-mer","name":"Argel\u00e8s-sur-Mer","lat":42.54396,"lon":3.02151},"argentan":{"code":"argentan","name":"Argentan","lat":48.73847,"lon":-0.02571},"argenteuil":{"code":"argenteuil","name":"Argenteuil","lat":48.94654,"lon":2.25778},"argenti\u00e8re":{"code":"argenti\u00e8re","name":"Argenti\u00e8re","lat":45.98176,"lon":6.92616},"argenton-sur-creuse":{"code":"argenton-sur-creuse","name":"Argenton-sur-Creuse","lat":46.5926,"lon":1.51851},"arlac":{"code":"arlac","name":"Arlac","lat":44.82747,"lon":-0.62619},"arles":{"code":"arles","name":"Arles","lat":43.68246,"lon":4.63284},"arleux":{"code":"arleux","name":"Arleux","lat":50.28628,"lon":3.12135},"armenti\u00e8res":{"code":"armenti\u00e8res","name":"Armenti\u00e8res","lat":50.68047,"lon":2.8775},"arnage":{"code":"arnage","name":"Arnage","lat":47.92777,"lon":0.19015},"arn\u00e8ke":{"code":"arn\u00e8ke","name":"Arn\u00e8ke","lat":50.83174,"lon":2.40826},"arpajon-essonne":{"code":"arpajon-essonne","name":"Arpajon (Essonne)","lat":48.58614,"lon":2.24049},"arras":{"code":"arras","name":"Arras","lat":50.28671,"lon":2.7819},"arrou":{"code":"arrou","name":"Arrou","lat":48.10051,"lon":1.1292},"ars-sur-moselle":{"code":"ars-sur-moselle","name":"Ars-sur-Moselle","lat":49.07445,"lon":6.07848},"artenay-loiret":{"code":"artenay-loiret","name":"Artenay (Loiret)","lat":48.08095,"lon":1.88303},"artix":{"code":"artix","name":"Artix","lat":43.39205,"lon":-0.57055},"arvant":{"code":"arvant","name":"Arvant","lat":45.36615,"lon":3.31097},"ascq":{"code":"ascq","name":"Ascq","lat":50.62197,"lon":3.15902},"asni\u00e8res-sur-seine":{"code":"asni\u00e8res-sur-seine","name":"Asni\u00e8res-sur-Seine","lat":48.9053,"lon":2.28378},"aspres-sur-bu\u00ebch":{"code":"aspres-sur-bu\u00ebch","name":"Aspres-sur-Bu\u00ebch","lat":44.51904,"lon":5.7547},"assat":{"code":"assat","name":"Assat","lat":43.25464,"lon":-0.29521},"assier":{"code":"assier","name":"Assier","lat":44.67367,"lon":1.87073},"athis-mons":{"code":"athis-mons","name":"Athis-Mons","lat":48.71235,"lon":2.4031},"aubagne":{"code":"aubagne","name":"Aubagne","lat":43.29607,"lon":5.56632},"aubazine-st-hilaire":{"code":"aubazine-st-hilaire","name":"Aubazine-St-Hilaire","lat":45.18177,"lon":1.64173},"aubergenville-\u00c9lisabethville":{"code":"aubergenville-\u00c9lisabethville","name":"Aubergenville-\u00c9lisabethville","lat":48.97187,"lon":1.84768},"aubervilliers-la-courneuve":{"code":"aubervilliers-la-courneuve","name":"Aubervilliers-La Courneuve","lat":48.9241,"lon":2.38554},"aubiat":{"code":"aubiat","name":"Aubiat","lat":45.98402,"lon":3.16031},"aubie-st-antoine":{"code":"aubie-st-antoine","name":"Aubie-St-Antoine","lat":45.01507,"lon":-0.41969},"aubiet":{"code":"aubiet","name":"Aubiet","lat":43.65016,"lon":0.7892},"aubign\u00e9-racan":{"code":"aubign\u00e9-racan","name":"Aubign\u00e9-Racan","lat":47.68669,"lon":0.26655},"aubigny-au-bac":{"code":"aubigny-au-bac","name":"Aubigny-au-Bac","lat":50.26847,"lon":3.15854},"aubigny-en-artois":{"code":"aubigny-en-artois","name":"Aubigny-en-Artois","lat":50.35307,"lon":2.59286},"aubin":{"code":"aubin","name":"Aubin","lat":44.52729,"lon":2.23902},"aubin-st-vaast":{"code":"aubin-st-vaast","name":"Aubin-St-Vaast","lat":50.3941,"lon":1.97105},"aubou\u00e9":{"code":"aubou\u00e9","name":"Aubou\u00e9","lat":49.21631,"lon":5.97156},"aubrives":{"code":"aubrives","name":"Aubrives","lat":50.1036,"lon":4.76085},"aubusson":{"code":"aubusson","name":"Aubusson","lat":45.96092,"lon":2.1605},"auch":{"code":"auch","name":"Auch","lat":43.64739,"lon":0.59707},"auchy-l\u00e8s-hesdin":{"code":"auchy-l\u00e8s-hesdin","name":"Auchy-l\u00e8s-Hesdin","lat":50.39213,"lon":2.08842},"audrieu":{"code":"audrieu","name":"Audrieu","lat":49.2161,"lon":-0.59646},"audruicq":{"code":"audruicq","name":"Audruicq","lat":50.87535,"lon":2.07735},"audun-le-roman":{"code":"audun-le-roman","name":"Audun-le-Roman","lat":49.36646,"lon":5.89138},"audun-le-tiche":{"code":"audun-le-tiche","name":"Audun-le-Tiche","lat":49.47808,"lon":5.9576},"auffay":{"code":"auffay","name":"Auffay","lat":49.71599,"lon":1.0982},"augy-vaux":{"code":"augy-vaux","name":"Augy-Vaux","lat":47.76632,"lon":3.611},"aulnay-sous-bois":{"code":"aulnay-sous-bois","name":"Aulnay-sous-Bois","lat":48.93212,"lon":2.49454},"aulnoye-aymeries":{"code":"aulnoye-aymeries","name":"Aulnoye-Aymeries","lat":50.19721,"lon":3.84375},"aumale":{"code":"aumale","name":"Aumale","lat":49.76476,"lon":1.75613},"aumont-aubrac":{"code":"aumont-aubrac","name":"Aumont-Aubrac","lat":44.71675,"lon":3.28521},"auneau":{"code":"auneau","name":"Auneau","lat":48.44545,"lon":1.77976},"auray":{"code":"auray","name":"Auray","lat":47.68012,"lon":-2.99919},"aurec":{"code":"aurec","name":"Aurec","lat":45.37116,"lon":4.19833},"aurillac":{"code":"aurillac","name":"Aurillac","lat":44.92075,"lon":2.43563},"auterive":{"code":"auterive","name":"Auterive","lat":43.34884,"lon":1.46863},"autun":{"code":"autun","name":"Autun","lat":46.95526,"lon":4.29297},"auvers-sur-oise":{"code":"auvers-sur-oise","name":"Auvers-sur-Oise","lat":49.07092,"lon":2.1765},"auxerre-st-gervais":{"code":"auxerre-st-gervais","name":"Auxerre-St-Gervais","lat":47.79753,"lon":3.58552},"auxonne":{"code":"auxonne","name":"Auxonne","lat":47.19221,"lon":5.37765},"avallon":{"code":"avallon","name":"Avallon","lat":47.49585,"lon":3.91264},"avenay":{"code":"avenay","name":"Avenay","lat":49.06454,"lon":4.04328},"avenue-foch":{"code":"avenue-foch","name":"Avenue-Foch","lat":48.8714,"lon":2.27568},"avenue-henri-martin":{"code":"avenue-henri-martin","name":"Avenue-Henri-Martin","lat":48.86494,"lon":2.27211},"avesnelles":{"code":"avesnelles","name":"Avesnelles","lat":50.1198,"lon":3.94605},"avesnes":{"code":"avesnes","name":"Avesnes","lat":50.12654,"lon":3.93374},"avignon":{"code":"avignon","name":"Avignon","lat":43.94117,"lon":4.80633},"avignonet":{"code":"avignonet","name":"Avignonet","lat":43.3639,"lon":1.78777},"avignon-tgv":{"code":"avignon-tgv","name":"Avignon-TGV","lat":43.92194,"lon":4.78581},"avion":{"code":"avion","name":"Avion","lat":50.40649,"lon":2.83333},"avord":{"code":"avord","name":"Avord","lat":47.03485,"lon":2.65234},"avoudrey":{"code":"avoudrey","name":"Avoudrey","lat":47.12984,"lon":6.43461},"avenue-du-pdt-kennedy":{"code":"avenue-du-pdt-kennedy","name":"Avenue du Pdt Kennedy","lat":48.85357,"lon":2.27964},"avranches":{"code":"avranches","name":"Avranches","lat":48.69042,"lon":-1.36997},"avrechy":{"code":"avrechy","name":"Avrechy","lat":49.44502,"lon":2.41799},"ax-les-thermes":{"code":"ax-les-thermes","name":"Ax-les-Thermes","lat":42.72503,"lon":1.83366},"ay":{"code":"ay","name":"Ay","lat":49.04879,"lon":4.00166},"aytr\u00e9-plage":{"code":"aytr\u00e9-plage","name":"Aytr\u00e9-Plage","lat":46.12754,"lon":-1.12829},"azay-le-rideau":{"code":"azay-le-rideau","name":"Azay-le-Rideau","lat":47.26701,"lon":0.44792},"azay-sur-cher":{"code":"azay-sur-cher","name":"Azay-sur-Cher","lat":47.36519,"lon":0.85946},"azerailles":{"code":"azerailles","name":"Azerailles","lat":48.491,"lon":6.69674},"baccarat":{"code":"baccarat","name":"Baccarat","lat":48.45226,"lon":6.74405},"bagnac":{"code":"bagnac","name":"Bagnac","lat":44.66516,"lon":2.16074},"bagneaux-sur-loing":{"code":"bagneaux-sur-loing","name":"Bagneaux-sur-Loing","lat":48.23047,"lon":2.7034},"bagnols-chadenet":{"code":"bagnols-chadenet","name":"Bagnols-Chadenet","lat":44.52832,"lon":3.62815},"baillargues":{"code":"baillargues","name":"Baillargues","lat":43.6531,"lon":4.00667},"bailleau-le-pin":{"code":"bailleau-le-pin","name":"Bailleau-le-Pin","lat":48.36675,"lon":1.32472},"bailleul-nord":{"code":"bailleul-nord","name":"Bailleul (Nord)","lat":50.729,"lon":2.73406},"bailleul-sire-berthoult":{"code":"bailleul-sire-berthoult","name":"Bailleul-Sire-Berthoult","lat":50.33476,"lon":2.84097},"bains-les-bains":{"code":"bains-les-bains","name":"Bains-les-Bains","lat":47.98122,"lon":6.29519},"bainville":{"code":"bainville","name":"Bainville","lat":48.586,"lon":6.09954},"baisieux":{"code":"baisieux","name":"Baisieux","lat":50.6186,"lon":3.23522},"balagny-st-\u00c9pin":{"code":"balagny-st-\u00c9pin","name":"Balagny-St-\u00c9pin","lat":49.29317,"lon":2.34536},"balbigny":{"code":"balbigny","name":"Balbigny","lat":45.81757,"lon":4.18783},"ballan":{"code":"ballan","name":"Ballan","lat":47.33676,"lon":0.61809},"ballancourt":{"code":"ballancourt","name":"Ballancourt","lat":48.53234,"lon":2.37137},"ballersdorf":{"code":"ballersdorf","name":"Ballersdorf","lat":47.61985,"lon":7.15515},"balsi\u00e8ges-bourg":{"code":"balsi\u00e8ges-bourg","name":"Balsi\u00e8ges-Bourg","lat":44.48228,"lon":3.45686},"banassac-la-canourgue":{"code":"banassac-la-canourgue","name":"Banassac-La Canourgue","lat":44.44598,"lon":3.19705},"bandol":{"code":"bandol","name":"Bandol","lat":43.14037,"lon":5.74995},"bannalec":{"code":"bannalec","name":"Bannalec","lat":47.92651,"lon":-3.70673},"banyuls-sur-mer":{"code":"banyuls-sur-mer","name":"Banyuls-sur-Mer","lat":42.48262,"lon":3.12441},"baraqueville-carcenac-peyral\u00e8s":{"code":"baraqueville-carcenac-peyral\u00e8s","name":"Baraqueville-Carcenac-Peyral\u00e8s","lat":44.27024,"lon":2.42726},"barentin":{"code":"barentin","name":"Barentin","lat":49.55017,"lon":0.95331},"barenton-bugny":{"code":"barenton-bugny","name":"Barenton-Bugny","lat":49.63068,"lon":3.6556},"barjac":{"code":"barjac","name":"Barjac","lat":44.49936,"lon":3.41057},"bar-le-duc":{"code":"bar-le-duc","name":"Bar-le-Duc","lat":48.77317,"lon":5.16781},"baroncourt":{"code":"baroncourt","name":"Baroncourt","lat":49.28449,"lon":5.6997},"barr":{"code":"barr","name":"Barr","lat":48.40305,"lon":7.45691},"barsac":{"code":"barsac","name":"Barsac","lat":44.60414,"lon":-0.32061},"barsanges":{"code":"barsanges","name":"Barsanges","lat":45.566,"lon":2.01882},"bar-sur-aube":{"code":"bar-sur-aube","name":"Bar-sur-Aube","lat":48.23852,"lon":4.70688},"bartenheim":{"code":"bartenheim","name":"Bartenheim","lat":47.63478,"lon":7.48767},"bas-\u00c9vette":{"code":"bas-\u00c9vette","name":"Bas-\u00c9vette","lat":47.68086,"lon":6.80692},"bas-monistrol":{"code":"bas-monistrol","name":"Bas-Monistrol","lat":45.29797,"lon":4.13958},"basse-ham":{"code":"basse-ham","name":"Basse-Ham","lat":49.38053,"lon":6.23495},"bassens-ville":{"code":"bassens-ville","name":"Bassens-Ville","lat":44.90131,"lon":-0.52239},"batz-sur-mer":{"code":"batz-sur-mer","name":"Batz-sur-Mer","lat":47.28091,"lon":-2.47941},"baule":{"code":"baule","name":"Baule","lat":47.81149,"lon":1.66784},"baume-les-dames":{"code":"baume-les-dames","name":"Baume-les-Dames","lat":47.35405,"lon":6.35912},"bauvin-provin":{"code":"bauvin-provin","name":"Bauvin-Provin","lat":50.51163,"lon":2.90502},"bayard":{"code":"bayard","name":"Bayard","lat":48.55152,"lon":5.07628},"bayeux":{"code":"bayeux","name":"Bayeux","lat":49.26945,"lon":-0.69731},"bayon":{"code":"bayon","name":"Bayon","lat":48.46765,"lon":6.32219},"bayonne":{"code":"bayonne","name":"Bayonne","lat":43.49702,"lon":-1.47019},"bazancourt":{"code":"bazancourt","name":"Bazancourt","lat":49.36113,"lon":4.17416},"bazi\u00e8ge":{"code":"bazi\u00e8ge","name":"Bazi\u00e8ge","lat":43.45318,"lon":1.62123},"bazoches":{"code":"bazoches","name":"Bazoches","lat":49.30523,"lon":3.61422},"b\u00e9ard":{"code":"b\u00e9ard","name":"B\u00e9ard","lat":46.86504,"lon":3.31787},"beaucaire":{"code":"beaucaire","name":"Beaucaire","lat":43.80215,"lon":4.64741},"beaugency":{"code":"beaugency","name":"Beaugency","lat":47.77825,"lon":1.62571},"beaulieu-sur-mer":{"code":"beaulieu-sur-mer","name":"Beaulieu-sur-Mer","lat":43.70679,"lon":7.33179},"beau-marais":{"code":"beau-marais","name":"Beau-Marais","lat":50.94553,"lon":1.8998},"beaumont-le-roger":{"code":"beaumont-le-roger","name":"Beaumont-le-Roger","lat":49.07442,"lon":0.77228},"beaune":{"code":"beaune","name":"Beaune","lat":47.02303,"lon":4.84873},"beaurainville":{"code":"beaurainville","name":"Beaurainville","lat":50.42263,"lon":1.89542},"beautiran":{"code":"beautiran","name":"Beautiran","lat":44.70139,"lon":-0.4509},"beauvais":{"code":"beauvais","name":"Beauvais","lat":49.42623,"lon":2.08794},"beauvoir-sur-niort":{"code":"beauvoir-sur-niort","name":"Beauvoir-sur-Niort","lat":46.1767,"lon":-0.46915},"beauvoisin":{"code":"beauvoisin","name":"Beauvoisin","lat":43.72494,"lon":4.32205},"beauzac":{"code":"beauzac","name":"Beauzac","lat":45.23567,"lon":4.09426},"b\u00e9con-les-bruy\u00e8res":{"code":"b\u00e9con-les-bruy\u00e8res","name":"B\u00e9con-les-Bruy\u00e8res","lat":48.90583,"lon":2.26831},"b\u00e9darieux":{"code":"b\u00e9darieux","name":"B\u00e9darieux","lat":43.60507,"lon":3.14761},"b\u00e9darrides":{"code":"b\u00e9darrides","name":"B\u00e9darrides","lat":44.04274,"lon":4.89372},"bedous":{"code":"bedous","name":"Bedous","lat":43.00056,"lon":-0.60111},"b\u00e8gles":{"code":"b\u00e8gles","name":"B\u00e8gles","lat":44.79978,"lon":-0.55533},"beillant":{"code":"beillant","name":"Beillant","lat":45.70096,"lon":-0.52729},"reims-beine-farman":{"code":"reims-beine-farman","name":"Reims-Beine-Farman","lat":49.24397,"lon":4.07097},"beinheim":{"code":"beinheim","name":"Beinheim","lat":48.87411,"lon":8.07885},"belfort":{"code":"belfort","name":"Belfort","lat":47.63251,"lon":6.85414},"bellac":{"code":"bellac","name":"Bellac","lat":46.12556,"lon":1.04633},"bellegarde-ain":{"code":"bellegarde-ain","name":"Bellegarde (Ain)","lat":46.11006,"lon":5.8236},"belle-isle-b\u00e9gard":{"code":"belle-isle-b\u00e9gard","name":"Belle-Isle-B\u00e9gard","lat":48.59335,"lon":-3.3231},"bellenaves":{"code":"bellenaves","name":"Bellenaves","lat":46.19954,"lon":3.0666},"belleville":{"code":"belleville","name":"Belleville","lat":48.81945,"lon":6.10171},"belleville-sur-sa\u00f4ne":{"code":"belleville-sur-sa\u00f4ne","name":"Belleville-sur-Sa\u00f4ne","lat":46.11175,"lon":4.72859},"belleville-vend\u00e9e":{"code":"belleville-vend\u00e9e","name":"Belleville-Vend\u00e9e","lat":46.78826,"lon":-1.43463},"bellevue":{"code":"bellevue","name":"Bellevue","lat":48.81877,"lon":2.2301},"bellignat":{"code":"bellignat","name":"Bellignat","lat":46.23879,"lon":5.63017},"belloy-st-martin":{"code":"belloy-st-martin","name":"Belloy-St-Martin","lat":49.09833,"lon":2.36124},"belv\u00e8s":{"code":"belv\u00e8s","name":"Belv\u00e8s","lat":44.7773,"lon":1.0119},"belvezet":{"code":"belvezet","name":"Belvezet","lat":44.56186,"lon":3.75189},"belz-ploemel":{"code":"belz-ploemel","name":"Belz-Ploemel","lat":47.6525,"lon":-3.07222},"b\u00e9na-fan\u00e8s":{"code":"b\u00e9na-fan\u00e8s","name":"B\u00e9na-Fan\u00e8s","lat":42.45797,"lon":1.91803},"b\u00e9nesse-maremne":{"code":"b\u00e9nesse-maremne","name":"B\u00e9nesse-Maremne","lat":43.62761,"lon":-1.37029},"b\u00e9nestroff":{"code":"b\u00e9nestroff","name":"B\u00e9nestroff","lat":48.90622,"lon":6.75063},"benfeld":{"code":"benfeld","name":"Benfeld","lat":48.3738,"lon":7.58438},"bengy":{"code":"bengy","name":"Bengy","lat":47.00009,"lon":2.7497},"b\u00e9ning":{"code":"b\u00e9ning","name":"B\u00e9ning","lat":49.13814,"lon":6.82789},"bergerac":{"code":"bergerac","name":"Bergerac","lat":44.85728,"lon":0.48877},"bergues":{"code":"bergues","name":"Bergues","lat":50.96846,"lon":2.42577},"berguette-isbergues":{"code":"berguette-isbergues","name":"Berguette-Isbergues","lat":50.61495,"lon":2.46296},"berlaimont":{"code":"berlaimont","name":"Berlaimont","lat":50.19768,"lon":3.81062},"bernay":{"code":"bernay","name":"Bernay","lat":49.08699,"lon":0.59573},"berre":{"code":"berre","name":"Berre","lat":43.50088,"lon":5.17891},"bersac":{"code":"bersac","name":"Bersac","lat":46.0837,"lon":1.43203},"berthelming":{"code":"berthelming","name":"Berthelming","lat":48.81082,"lon":7.00654},"bertrichamps":{"code":"bertrichamps","name":"Bertrichamps","lat":48.42849,"lon":6.79128},"bertry":{"code":"bertry","name":"Bertry","lat":50.09099,"lon":3.44899},"besan\u00e7on-mouill\u00e8re":{"code":"besan\u00e7on-mouill\u00e8re","name":"Besan\u00e7on-Mouill\u00e8re","lat":47.24093,"lon":6.03406},"besan\u00e7on-viotte":{"code":"besan\u00e7on-viotte","name":"Besan\u00e7on-Viotte","lat":47.24721,"lon":6.02158},"besl\u00e9":{"code":"besl\u00e9","name":"Besl\u00e9","lat":47.6992,"lon":-1.87028},"bessancourt":{"code":"bessancourt","name":"Bessancourt","lat":49.03546,"lon":2.21027},"bessay":{"code":"bessay","name":"Bessay","lat":46.44293,"lon":3.36058},"bess\u00e8ges":{"code":"bess\u00e8ges","name":"Bess\u00e8ges","lat":44.2968,"lon":4.09279},"b\u00e9taille":{"code":"b\u00e9taille","name":"B\u00e9taille","lat":44.94254,"lon":1.73453},"b\u00e9thune":{"code":"b\u00e9thune","name":"B\u00e9thune","lat":50.52072,"lon":2.64167},"betton":{"code":"betton","name":"Betton","lat":48.18175,"lon":-1.63413},"beuvrages":{"code":"beuvrages","name":"Beuvrages","lat":50.3896,"lon":3.50662},"beuvry-pas-de-calais":{"code":"beuvry-pas-de-calais","name":"Beuvry (Pas-de-Calais)","lat":50.53582,"lon":2.6917},"beynes":{"code":"beynes","name":"Beynes","lat":48.85965,"lon":1.87575},"beynost":{"code":"beynost","name":"Beynost","lat":45.83385,"lon":5.0068},"b\u00e9ziers":{"code":"b\u00e9ziers","name":"B\u00e9ziers","lat":43.33627,"lon":3.21899},"biache-st-vaast":{"code":"biache-st-vaast","name":"Biache-St-Vaast","lat":50.31664,"lon":2.942},"biarritz":{"code":"biarritz","name":"Biarritz","lat":43.45922,"lon":-1.54549},"biblioth\u00e8que-fran\u00e7ois-mitterrand":{"code":"biblioth\u00e8que-fran\u00e7ois-mitterrand","name":"Biblioth\u00e8que-Fran\u00e7ois-Mitterrand","lat":48.82874,"lon":2.37794},"bi\u00e8vres":{"code":"bi\u00e8vres","name":"Bi\u00e8vres","lat":48.75124,"lon":2.21556},"biffontaine":{"code":"biffontaine","name":"Biffontaine","lat":48.20581,"lon":6.80674},"bigny":{"code":"bigny","name":"Bigny","lat":46.80104,"lon":2.36941},"billy-montigny":{"code":"billy-montigny","name":"Billy-Montigny","lat":50.41531,"lon":2.91167},"biot":{"code":"biot","name":"Biot","lat":43.61139,"lon":7.12667},"bischheim":{"code":"bischheim","name":"Bischheim","lat":48.61124,"lon":7.74123},"bischoffsheim":{"code":"bischoffsheim","name":"Bischoffsheim","lat":48.4868,"lon":7.49781},"bischwiller-bas-rhin":{"code":"bischwiller-bas-rhin","name":"Bischwiller (Bas-Rhin)","lat":48.76541,"lon":7.85116},"bitche":{"code":"bitche","name":"Bitche","lat":49.04843,"lon":7.43258},"bitschwiller-haut-rhin":{"code":"bitschwiller-haut-rhin","name":"Bitschwiller (Haut-Rhin)","lat":47.82815,"lon":7.07818},"blainville-damelevi\u00e8res":{"code":"blainville-damelevi\u00e8res","name":"Blainville-Damelevi\u00e8res","lat":48.56405,"lon":6.38827},"blaisy-bas":{"code":"blaisy-bas","name":"Blaisy-Bas","lat":47.37324,"lon":4.74138},"blangy-sur-bresle":{"code":"blangy-sur-bresle","name":"Blangy-sur-Bresle","lat":49.93302,"lon":1.62482},"blangy-sur-ternoise":{"code":"blangy-sur-ternoise","name":"Blangy-sur-Ternoise","lat":50.42336,"lon":2.16944},"blanquefort":{"code":"blanquefort","name":"Blanquefort","lat":44.91761,"lon":-0.62355},"blanzy":{"code":"blanzy","name":"Blanzy","lat":46.70211,"lon":4.40073},"blanzy-canal":{"code":"blanzy-canal","name":"Blanzy-Canal","lat":46.69399,"lon":4.39221},"blaye":{"code":"blaye","name":"Blaye","lat":45.12794,"lon":-0.66351},"bl\u00e9r\u00e9-la-croix":{"code":"bl\u00e9r\u00e9-la-croix","name":"Bl\u00e9r\u00e9-la-Croix","lat":47.3381,"lon":0.98632},"blesme-haussignemont":{"code":"blesme-haussignemont","name":"Blesme-Haussignemont","lat":48.72154,"lon":4.75259},"blois":{"code":"blois","name":"Blois","lat":47.58555,"lon":1.32353},"blonville-sur-mer-benerville":{"code":"blonville-sur-mer-benerville","name":"Blonville-sur-Mer-Benerville","lat":49.33123,"lon":0.03536},"bo\u00ebn":{"code":"bo\u00ebn","name":"Bo\u00ebn","lat":45.7416,"lon":4.00444},"bogny-sur-meuse":{"code":"bogny-sur-meuse","name":"Bogny-sur-Meuse","lat":49.85845,"lon":4.76338},"bohain":{"code":"bohain","name":"Bohain","lat":49.98859,"lon":3.44263},"boigneville":{"code":"boigneville","name":"Boigneville","lat":48.34161,"lon":2.37879},"bois-colombes":{"code":"bois-colombes","name":"Bois-Colombes","lat":48.91373,"lon":2.27191},"bois-d'oingt-l\u00e9gny":{"code":"bois-d'oingt-l\u00e9gny","name":"Bois-d'Oingt-L\u00e9gny","lat":45.90649,"lon":4.57517},"bois-le-roi":{"code":"bois-le-roi","name":"Bois-le-Roi","lat":48.47556,"lon":2.69199},"boisleux":{"code":"boisleux","name":"Boisleux","lat":50.21064,"lon":2.7711},"boisseaux":{"code":"boisseaux","name":"Boisseaux","lat":48.25647,"lon":1.97296},"boisset-cantal":{"code":"boisset-cantal","name":"Boisset (Cantal)","lat":44.78696,"lon":2.25032},"boissise-le-roi":{"code":"boissise-le-roi","name":"Boissise-le-Roi","lat":48.52942,"lon":2.57305},"boissy-l'aillerie":{"code":"boissy-l'aillerie","name":"Boissy-l'Aillerie","lat":49.07593,"lon":2.02452},"bolbec-nointot":{"code":"bolbec-nointot","name":"Bolbec-Nointot","lat":49.5917,"lon":0.48492},"boll\u00e8ne-la-croisi\u00e8re":{"code":"boll\u00e8ne-la-croisi\u00e8re","name":"Boll\u00e8ne-la-Croisi\u00e8re","lat":44.27151,"lon":4.7081},"bollwiller":{"code":"bollwiller","name":"Bollwiller","lat":47.85671,"lon":7.26731},"bologne":{"code":"bologne","name":"Bologne","lat":48.19858,"lon":5.13426},"bolqu\u00e8re-eyne":{"code":"bolqu\u00e8re-eyne","name":"Bolqu\u00e8re-Eyne","lat":42.49778,"lon":2.09188},"bondy":{"code":"bondy","name":"Bondy","lat":48.89385,"lon":2.47876},"bonnard-bassou":{"code":"bonnard-bassou","name":"Bonnard-Bassou","lat":47.92703,"lon":3.5403},"bonnemain":{"code":"bonnemain","name":"Bonnemain","lat":48.47709,"lon":-1.76586},"bonneval":{"code":"bonneval","name":"Bonneval","lat":48.1863,"lon":1.38613},"bonneville":{"code":"bonneville","name":"Bonneville","lat":46.07785,"lon":6.41691},"bonni\u00e8res":{"code":"bonni\u00e8res","name":"Bonni\u00e8res","lat":49.03875,"lon":1.58131},"bons-en-chablais":{"code":"bons-en-chablais","name":"Bons-en-Chablais","lat":46.27,"lon":6.36642},"bonson":{"code":"bonson","name":"Bonson","lat":45.52246,"lon":4.21629},"boran-sur-oise":{"code":"boran-sur-oise","name":"Boran-sur-Oise","lat":49.1673,"lon":2.36253},"bordeaux-st-jean":{"code":"bordeaux-st-jean","name":"Bordeaux-St-Jean","lat":44.82582,"lon":-0.55601},"ravezies":{"code":"ravezies","name":"Ravezies","lat":44.86664,"lon":-0.57741},"bords":{"code":"bords","name":"Bords","lat":45.8947,"lon":-0.79884},"bornel-belle-\u00c9glise":{"code":"bornel-belle-\u00c9glise","name":"Bornel-Belle-\u00c9glise","lat":49.1945,"lon":2.20688},"bouaye":{"code":"bouaye","name":"Bouaye","lat":47.13778,"lon":-1.67982},"bouchain":{"code":"bouchain","name":"Bouchain","lat":50.27826,"lon":3.33197},"boucoiran":{"code":"boucoiran","name":"Boucoiran","lat":43.99236,"lon":4.18765},"bouffemont-moisselles":{"code":"bouffemont-moisselles","name":"Bouffemont-Moisselles","lat":49.04499,"lon":2.32323},"bougival":{"code":"bougival","name":"Bougival","lat":48.85402,"lon":2.13205},"boulainvilliers":{"code":"boulainvilliers","name":"Boulainvilliers","lat":48.85716,"lon":2.27484},"boulevard-victor":{"code":"boulevard-victor","name":"Boulevard-Victor","lat":48.84105,"lon":2.27185},"boulogne-tintelleries":{"code":"boulogne-tintelleries","name":"Boulogne-Tintelleries","lat":50.72711,"lon":1.60961},"boulogne-ville":{"code":"boulogne-ville","name":"Boulogne-Ville","lat":50.71561,"lon":1.61033},"boulouris-sur-mer":{"code":"boulouris-sur-mer","name":"Boulouris-sur-Mer","lat":43.41633,"lon":6.80834},"bouray":{"code":"bouray","name":"Bouray","lat":48.53325,"lon":2.29031},"bourbourg":{"code":"bourbourg","name":"Bourbourg","lat":50.95274,"lon":2.19503},"bourg-bruche":{"code":"bourg-bruche","name":"Bourg-Bruche","lat":48.36032,"lon":7.13714},"bourg-en-bresse":{"code":"bourg-en-bresse","name":"Bourg-en-Bresse","lat":46.20007,"lon":5.21513},"bourges":{"code":"bourges","name":"Bourges","lat":47.09437,"lon":2.39418},"bourg-lastic-messeix":{"code":"bourg-lastic-messeix","name":"Bourg-Lastic-Messeix","lat":45.62753,"lon":2.56},"bourg-madame":{"code":"bourg-madame","name":"Bourg-Madame","lat":42.43003,"lon":1.9536},"bourgneuf-en-retz":{"code":"bourgneuf-en-retz","name":"Bourgneuf-en-Retz","lat":47.04687,"lon":-1.95494},"bourgoin-jallieu":{"code":"bourgoin-jallieu","name":"Bourgoin-Jallieu","lat":45.58373,"lon":5.27401},"bourg-st-maurice":{"code":"bourg-st-maurice","name":"Bourg-St-Maurice","lat":45.61953,"lon":6.77146},"bourgtheroulde-thuit-h\u00e9bert":{"code":"bourgtheroulde-thuit-h\u00e9bert","name":"Bourgtheroulde-Thuit-H\u00e9bert","lat":49.3175,"lon":0.83967},"bournezeau":{"code":"bournezeau","name":"Bournezeau","lat":46.65148,"lon":-1.17846},"bourron-marlotte-grez":{"code":"bourron-marlotte-grez","name":"Bourron-Marlotte-Grez","lat":48.33267,"lon":2.69346},"bourth":{"code":"bourth","name":"Bourth","lat":48.76543,"lon":0.80594},"boussay-la-bruffi\u00e8re":{"code":"boussay-la-bruffi\u00e8re","name":"Boussay-La Bruffi\u00e8re","lat":47.05061,"lon":-1.18351},"boussens":{"code":"boussens","name":"Boussens","lat":43.17964,"lon":0.97219},"boussy-st-antoine":{"code":"boussy-st-antoine","name":"Boussy-St-Antoine","lat":48.68098,"lon":2.53301},"bouth\u00e9on":{"code":"bouth\u00e9on","name":"Bouth\u00e9on","lat":45.52434,"lon":4.27714},"boutigny":{"code":"boutigny","name":"Boutigny","lat":48.43491,"lon":2.37655},"bouvines":{"code":"bouvines","name":"Bouvines","lat":50.57313,"lon":3.20232},"bouy":{"code":"bouy","name":"Bouy","lat":49.09081,"lon":4.3536},"bouzonville":{"code":"bouzonville","name":"Bouzonville","lat":49.28924,"lon":6.53253},"boves":{"code":"boves","name":"Boves","lat":49.84727,"lon":2.39829},"bram":{"code":"bram","name":"Bram","lat":43.24383,"lon":2.11982},"brand\u00e9rion":{"code":"brand\u00e9rion","name":"Brand\u00e9rion","lat":47.78232,"lon":-3.19509},"brassac-les-mines-ste-florine":{"code":"brassac-les-mines-ste-florine","name":"Brassac-les-Mines-Ste-Florine","lat":45.41448,"lon":3.33122},"brax-l\u00e9guevin":{"code":"brax-l\u00e9guevin","name":"Brax-L\u00e9guevin","lat":43.6151,"lon":1.23607},"brazey-en-plaine":{"code":"brazey-en-plaine","name":"Brazey-en-Plaine","lat":47.13176,"lon":5.21183},"br\u00e9aut\u00e9-beuzeville":{"code":"br\u00e9aut\u00e9-beuzeville","name":"Br\u00e9aut\u00e9-Beuzeville","lat":49.60357,"lon":0.41684},"brebi\u00e8res-sud":{"code":"brebi\u00e8res-sud","name":"Brebi\u00e8res-Sud","lat":50.33631,"lon":3.01355},"breil-sur-roya":{"code":"breil-sur-roya","name":"Breil-sur-Roya","lat":43.94432,"lon":7.51649},"breitenbach-haut-rhin":{"code":"breitenbach-haut-rhin","name":"Breitenbach (Haut-Rhin)","lat":48.02883,"lon":7.10427},"br\u00e9lidy-plou\u00ebc":{"code":"br\u00e9lidy-plou\u00ebc","name":"Br\u00e9lidy-Plou\u00ebc","lat":48.66907,"lon":-3.1962},"bressuire":{"code":"bressuire","name":"Bressuire","lat":46.83717,"lon":-0.49648},"brest":{"code":"brest","name":"Brest","lat":48.38808,"lon":-4.47892},"breteil":{"code":"breteil","name":"Breteil","lat":48.14037,"lon":-1.89764},"bretenoux-biars":{"code":"bretenoux-biars","name":"Bretenoux-Biars","lat":44.92756,"lon":1.8442},"breteuil-embranchement":{"code":"breteuil-embranchement","name":"Breteuil-Embranchement","lat":49.62665,"lon":2.38411},"br\u00e9tigny":{"code":"br\u00e9tigny","name":"Br\u00e9tigny","lat":48.60624,"lon":2.30193},"br\u00e9tigny-norges":{"code":"br\u00e9tigny-norges","name":"Br\u00e9tigny-Norges","lat":47.38963,"lon":5.10976},"bretoncelles":{"code":"bretoncelles","name":"Bretoncelles","lat":48.43293,"lon":0.89317},"bretteville-norrey":{"code":"bretteville-norrey","name":"Bretteville-Norrey","lat":49.20317,"lon":-0.51211},"breuillet-bruy\u00e8res-le-ch\u00e2tel":{"code":"breuillet-bruy\u00e8res-le-ch\u00e2tel","name":"Breuillet-Bruy\u00e8res-le-Ch\u00e2tel","lat":48.5778,"lon":2.19283},"breuillet-village":{"code":"breuillet-village","name":"Breuillet-Village","lat":48.56481,"lon":2.17132},"breuil-romain":{"code":"breuil-romain","name":"Breuil-Romain","lat":49.30853,"lon":3.76604},"br\u00e9val":{"code":"br\u00e9val","name":"Br\u00e9val","lat":48.94413,"lon":1.54302},"brian\u00e7on":{"code":"brian\u00e7on","name":"Brian\u00e7on","lat":44.88961,"lon":6.63263},"briare":{"code":"briare","name":"Briare","lat":47.6465,"lon":2.7337},"brignac":{"code":"brignac","name":"Brignac","lat":45.86288,"lon":1.44175},"brignais":{"code":"brignais","name":"Brignais","lat":45.67354,"lon":4.76352},"brignoud":{"code":"brignoud","name":"Brignoud","lat":45.26259,"lon":5.90134},"brimeux":{"code":"brimeux","name":"Brimeux","lat":50.44687,"lon":1.83174},"brion-laizy":{"code":"brion-laizy","name":"Brion-Laizy","lat":46.90852,"lon":4.20679},"brion-montr\u00e9al-la-cluse":{"code":"brion-montr\u00e9al-la-cluse","name":"Brion-Montr\u00e9al-la-Cluse","lat":46.17598,"lon":5.55886},"brionne-eure":{"code":"brionne-eure","name":"Brionne (Eure)","lat":49.19635,"lon":0.71157},"brion-pr\u00e8s-thouet":{"code":"brion-pr\u00e8s-thouet","name":"Brion-pr\u00e8s-Thouet","lat":47.04872,"lon":-0.1849},"brioude":{"code":"brioude","name":"Brioude","lat":45.30069,"lon":3.37895},"briouze":{"code":"briouze","name":"Briouze","lat":48.702,"lon":-0.36744},"brive-la-gaillarde":{"code":"brive-la-gaillarde","name":"Brive-la-Gaillarde","lat":45.15262,"lon":1.52814},"broons":{"code":"broons","name":"Broons","lat":48.33336,"lon":-2.23642},"brou":{"code":"brou","name":"Brou","lat":48.21712,"lon":1.1615},"broye":{"code":"broye","name":"Broye","lat":46.8623,"lon":4.29499},"bruges":{"code":"bruges","name":"Bruges","lat":44.886,"lon":-0.60894},"brumath":{"code":"brumath","name":"Brumath","lat":48.73218,"lon":7.70038},"brun\u00e9mont":{"code":"brun\u00e9mont","name":"Brun\u00e9mont","lat":50.27818,"lon":3.14636},"brunoy":{"code":"brunoy","name":"Brunoy","lat":48.69947,"lon":2.50644},"brunstatt":{"code":"brunstatt","name":"Brunstatt","lat":47.71979,"lon":7.31414},"bruy\u00e8res-vosges":{"code":"bruy\u00e8res-vosges","name":"Bruy\u00e8res (Vosges)","lat":48.20493,"lon":6.71888},"bruy\u00e8res-sur-oise":{"code":"bruy\u00e8res-sur-oise","name":"Bruy\u00e8res-sur-Oise","lat":49.1552,"lon":2.32707},"bruz":{"code":"bruz","name":"Bruz","lat":48.02852,"lon":-1.75199},"bueil":{"code":"bueil","name":"Bueil","lat":48.92556,"lon":1.44317},"bugeat":{"code":"bugeat","name":"Bugeat","lat":45.60047,"lon":1.92454},"buire-sur-l'ancre":{"code":"buire-sur-l'ancre","name":"Buire-sur-l'Ancre","lat":49.9651,"lon":2.59907},"bully-grenay":{"code":"bully-grenay","name":"Bully-Grenay","lat":50.44898,"lon":2.73222},"buno-gironville":{"code":"buno-gironville","name":"Buno-Gironville","lat":48.37041,"lon":2.38656},"busigny":{"code":"busigny","name":"Busigny","lat":50.03947,"lon":3.44589},"bussac":{"code":"bussac","name":"Bussac","lat":45.21156,"lon":-0.36804},"busseau-sur-creuse":{"code":"busseau-sur-creuse","name":"Busseau-sur-Creuse","lat":46.12309,"lon":2.02311},"bussi\u00e8re-galant":{"code":"bussi\u00e8re-galant","name":"Bussi\u00e8re-Galant","lat":45.60759,"lon":1.02607},"buzy-en-b\u00e9arn":{"code":"buzy-en-b\u00e9arn","name":"Buzy-en-B\u00e9arn","lat":43.14831,"lon":-0.45604},"byans":{"code":"byans","name":"Byans","lat":47.11827,"lon":5.85219},"cadaujac":{"code":"cadaujac","name":"Cadaujac","lat":44.75223,"lon":-0.53791},"caen":{"code":"caen","name":"Caen","lat":49.17655,"lon":-0.34826},"caffiers":{"code":"caffiers","name":"Caffiers","lat":50.85057,"lon":1.81133},"cagnes-sur-mer":{"code":"cagnes-sur-mer","name":"Cagnes-sur-Mer","lat":43.65715,"lon":7.14802},"cahors":{"code":"cahors","name":"Cahors","lat":44.44916,"lon":1.43325},"calais-fr\u00e9thun":{"code":"calais-fr\u00e9thun","name":"Calais-Fr\u00e9thun","lat":50.90259,"lon":1.81129},"calais-ville":{"code":"calais-ville","name":"Calais-Ville","lat":50.95343,"lon":1.85139},"callac":{"code":"callac","name":"Callac","lat":48.4069,"lon":-3.41866},"calonne-ricouart":{"code":"calonne-ricouart","name":"Calonne-Ricouart","lat":50.48307,"lon":2.48183},"cambo-les-bains":{"code":"cambo-les-bains","name":"Cambo-les-Bains","lat":43.36523,"lon":-1.39616},"cambrai":{"code":"cambrai","name":"Cambrai","lat":50.177,"lon":3.24129},"campagnac-st-geniez":{"code":"campagnac-st-geniez","name":"Campagnac-St-Geniez","lat":44.42213,"lon":3.0637},"campagne":{"code":"campagne","name":"Campagne","lat":42.91625,"lon":2.20427},"cannes":{"code":"cannes","name":"Cannes","lat":43.55416,"lon":7.01862},"cannes-la-bocca":{"code":"cannes-la-bocca","name":"Cannes-la-Bocca","lat":43.54912,"lon":6.98573},"cantin":{"code":"cantin","name":"Cantin","lat":50.31243,"lon":3.12169},"cap-d'ail":{"code":"cap-d'ail","name":"Cap-d'Ail","lat":43.72072,"lon":7.39364},"capdenac":{"code":"capdenac","name":"Capdenac","lat":44.57896,"lon":2.07709},"cap-martin-roquebrune":{"code":"cap-martin-roquebrune","name":"Cap-Martin-Roquebrune","lat":43.76045,"lon":7.45723},"capvern":{"code":"capvern","name":"Capvern","lat":43.10358,"lon":0.32954},"carantilly-marigny":{"code":"carantilly-marigny","name":"Carantilly-Marigny","lat":49.06779,"lon":-1.24618},"carbonne":{"code":"carbonne","name":"Carbonne","lat":43.29838,"lon":1.21241},"carcassonne":{"code":"carcassonne","name":"Carcassonne","lat":43.21817,"lon":2.35243},"carentan":{"code":"carentan","name":"Carentan","lat":49.30181,"lon":-1.24209},"carhaix":{"code":"carhaix","name":"Carhaix","lat":48.27598,"lon":-3.56395},"carignan":{"code":"carignan","name":"Carignan","lat":49.62852,"lon":5.16847},"carmaux":{"code":"carmaux","name":"Carmaux","lat":44.04861,"lon":2.15199},"carno\u00ebt-locarn":{"code":"carno\u00ebt-locarn","name":"Carno\u00ebt-Locarn","lat":48.3403,"lon":-3.4907},"carnol\u00e8s":{"code":"carnol\u00e8s","name":"Carnol\u00e8s","lat":43.76124,"lon":7.4809},"carnoules":{"code":"carnoules","name":"Carnoules","lat":43.29746,"lon":6.18703},"carry-le-rouet":{"code":"carry-le-rouet","name":"Carry-le-Rouet","lat":43.33684,"lon":5.15412},"casino-lacroix-laval":{"code":"casino-lacroix-laval","name":"Casino-Lacroix-Laval","lat":45.78843,"lon":4.72981},"cassel":{"code":"cassel","name":"Cassel","lat":50.78776,"lon":2.46003},"cassis":{"code":"cassis","name":"Cassis","lat":43.23399,"lon":5.55316},"castelnaudary":{"code":"castelnaudary","name":"Castelnaudary","lat":43.31206,"lon":1.9501},"castelnau-d'estr\u00e9tefonds":{"code":"castelnau-d'estr\u00e9tefonds","name":"Castelnau-d'Estr\u00e9tefonds","lat":43.78616,"lon":1.34155},"castelsarrasin":{"code":"castelsarrasin","name":"Castelsarrasin","lat":44.04022,"lon":1.1145},"castillon":{"code":"castillon","name":"Castillon","lat":44.85716,"lon":-0.04069},"castres-tarn":{"code":"castres-tarn","name":"Castres (Tarn)","lat":43.59916,"lon":2.23122},"catteni\u00e8res":{"code":"catteni\u00e8res","name":"Catteni\u00e8res","lat":50.12811,"lon":3.33372},"caud\u00e9ran-m\u00e9rignac":{"code":"caud\u00e9ran-m\u00e9rignac","name":"Caud\u00e9ran-M\u00e9rignac","lat":44.84295,"lon":-0.62753},"caudrot":{"code":"caudrot","name":"Caudrot","lat":44.58045,"lon":-0.14469},"caudry":{"code":"caudry","name":"Caudry","lat":50.11138,"lon":3.40963},"caulnes":{"code":"caulnes","name":"Caulnes","lat":48.28436,"lon":-2.1558},"caussade-tarn-et-garonne":{"code":"caussade-tarn-et-garonne","name":"Caussade (Tarn-et-Garonne)","lat":44.16231,"lon":1.53346},"cavaillon":{"code":"cavaillon","name":"Cavaillon","lat":43.8347,"lon":5.04374},"cavignac":{"code":"cavignac","name":"Cavignac","lat":45.10418,"lon":-0.38137},"caz\u00e8res-sur-garonne":{"code":"caz\u00e8res-sur-garonne","name":"Caz\u00e8res-sur-Garonne","lat":43.2129,"lon":1.08278},"ceilhes-roqueredonde":{"code":"ceilhes-roqueredonde","name":"Ceilhes-Roqueredonde","lat":43.81065,"lon":3.15888},"ceintrey":{"code":"ceintrey","name":"Ceintrey","lat":48.5247,"lon":6.15727},"cenon":{"code":"cenon","name":"Cenon","lat":44.85599,"lon":-0.53356},"cerb\u00e8re":{"code":"cerb\u00e8re","name":"Cerb\u00e8re","lat":42.44277,"lon":3.16553},"cercottes":{"code":"cercottes","name":"Cercottes","lat":47.98716,"lon":1.8847},"cercy-la-tour":{"code":"cercy-la-tour","name":"Cercy-la-Tour","lat":46.85781,"lon":3.645},"c\u00e9rences":{"code":"c\u00e9rences","name":"C\u00e9rences","lat":48.92013,"lon":-1.42743},"cergy-le-haut":{"code":"cergy-le-haut","name":"Cergy-le-Haut","lat":49.04766,"lon":2.01078},"cergy-pr\u00e9fecture":{"code":"cergy-pr\u00e9fecture","name":"Cergy-Pr\u00e9fecture","lat":49.03665,"lon":2.07965},"cergy-st-christophe":{"code":"cergy-st-christophe","name":"Cergy-St-Christophe","lat":49.04985,"lon":2.03348},"cerizay":{"code":"cerizay","name":"Cerizay","lat":46.81732,"lon":-0.66748},"cernay-haut-rhin":{"code":"cernay-haut-rhin","name":"Cernay (Haut-Rhin)","lat":47.80171,"lon":7.17394},"cernay-val-d'oise":{"code":"cernay-val-d'oise","name":"Cernay (Val-d'Oise)","lat":48.98528,"lon":2.25702},"c\u00e9rons":{"code":"c\u00e9rons","name":"C\u00e9rons","lat":44.63298,"lon":-0.34112},"cessieu":{"code":"cessieu","name":"Cessieu","lat":45.56102,"lon":5.37544},"cesson":{"code":"cesson","name":"Cesson","lat":48.56587,"lon":2.59417},"cesson-s\u00e9vign\u00e9-halte":{"code":"cesson-s\u00e9vign\u00e9-halte","name":"Cesson-S\u00e9vign\u00e9-Halte","lat":48.11237,"lon":-1.6025},"ceyz\u00e9riat":{"code":"ceyz\u00e9riat","name":"Ceyz\u00e9riat","lat":46.18346,"lon":5.32582},"c\u00e9zy":{"code":"c\u00e9zy","name":"C\u00e9zy","lat":47.98559,"lon":3.33814},"chabanais":{"code":"chabanais","name":"Chabanais","lat":45.87256,"lon":0.71477},"chabenet":{"code":"chabenet","name":"Chabenet","lat":46.62656,"lon":1.50786},"chabons":{"code":"chabons","name":"Chabons","lat":45.43778,"lon":5.4284},"chabris":{"code":"chabris","name":"Chabris","lat":47.25666,"lon":1.64684},"chagny":{"code":"chagny","name":"Chagny","lat":46.90735,"lon":4.74918},"chailly-boissy-le-ch\u00e2tel":{"code":"chailly-boissy-le-ch\u00e2tel","name":"Chailly-Boissy-Le Ch\u00e2tel","lat":48.81428,"lon":3.15191},"chaingy-fourneaux-plage":{"code":"chaingy-fourneaux-plage","name":"Chaingy-Fourneaux-Plage","lat":47.87749,"lon":1.78368},"chalais":{"code":"chalais","name":"Chalais","lat":45.27068,"lon":0.04339},"challans":{"code":"challans","name":"Challans","lat":46.84381,"lon":-1.87155},"chalonnes":{"code":"chalonnes","name":"Chalonnes","lat":47.34291,"lon":-0.74358},"ch\u00e2lons-en-champagne":{"code":"ch\u00e2lons-en-champagne","name":"Ch\u00e2lons-en-Champagne","lat":48.95547,"lon":4.34896},"chalon-sur-sa\u00f4ne":{"code":"chalon-sur-sa\u00f4ne","name":"Chalon-sur-Sa\u00f4ne","lat":46.78103,"lon":4.84316},"chamali\u00e8res-sur-loire":{"code":"chamali\u00e8res-sur-loire","name":"Chamali\u00e8res-sur-Loire","lat":45.20556,"lon":3.99211},"chamarande":{"code":"chamarande","name":"Chamarande","lat":48.51466,"lon":2.21607},"champbenoist-poigny":{"code":"champbenoist-poigny","name":"Champbenoist-Poigny","lat":48.54574,"lon":3.28692},"chamb\u00e9ry-challes-les-eaux":{"code":"chamb\u00e9ry-challes-les-eaux","name":"Chamb\u00e9ry-Challes-les-Eaux","lat":45.57093,"lon":5.92054},"chamblet":{"code":"chamblet","name":"Chamblet","lat":46.31381,"lon":2.7015},"chambly":{"code":"chambly","name":"Chambly","lat":49.16357,"lon":2.24037},"chamborigaud":{"code":"chamborigaud","name":"Chamborigaud","lat":44.30069,"lon":3.97937},"chambourg":{"code":"chambourg","name":"Chambourg","lat":47.18165,"lon":0.96543},"chamelet":{"code":"chamelet","name":"Chamelet","lat":45.98207,"lon":4.50719},"chamonix-mont-blanc":{"code":"chamonix-mont-blanc","name":"Chamonix-Mont-Blanc","lat":45.92256,"lon":6.87409},"chamousset":{"code":"chamousset","name":"Chamousset","lat":45.5576,"lon":6.20567},"champagn\u00e9":{"code":"champagn\u00e9","name":"Champagn\u00e9","lat":48.01954,"lon":0.33456},"champagne-sur-oise":{"code":"champagne-sur-oise","name":"Champagne-sur-Oise","lat":49.13574,"lon":2.24208},"champagne-sur-seine":{"code":"champagne-sur-seine","name":"Champagne-sur-Seine","lat":48.40634,"lon":2.79977},"champagney":{"code":"champagney","name":"Champagney","lat":47.70315,"lon":6.70123},"champagnole":{"code":"champagnole","name":"Champagnole","lat":46.74939,"lon":5.91016},"champ-de-courses-d'enghien":{"code":"champ-de-courses-d'enghien","name":"Champ-de-Courses-d'Enghien","lat":48.97974,"lon":2.29175},"champigneulles":{"code":"champigneulles","name":"Champigneulles","lat":48.73507,"lon":6.16936},"champigny-sur-yonne":{"code":"champigny-sur-yonne","name":"Champigny-sur-Yonne","lat":48.32417,"lon":3.1309},"champ-de-mars-tour-eiffel":{"code":"champ-de-mars-tour-eiffel","name":"Champ-de-Mars-Tour-Eiffel","lat":48.85869,"lon":2.29204},"champs-st-bris":{"code":"champs-st-bris","name":"Champs-St-Bris","lat":47.73829,"lon":3.60355},"champtoc\u00e9-sur-loire":{"code":"champtoc\u00e9-sur-loire","name":"Champtoc\u00e9-sur-Loire","lat":47.41021,"lon":-0.86789},"chanac":{"code":"chanac","name":"Chanac","lat":44.47338,"lon":3.34496},"changis-st-jean":{"code":"changis-st-jean","name":"Changis-St-Jean","lat":48.9593,"lon":3.02632},"chanteloup-les-vignes":{"code":"chanteloup-les-vignes","name":"Chanteloup-les-Vignes","lat":48.97029,"lon":2.02723},"chantenay":{"code":"chantenay","name":"Chantenay","lat":47.19671,"lon":-1.59596},"chantenay-st-imbert":{"code":"chantenay-st-imbert","name":"Chantenay-St-Imbert","lat":46.7278,"lon":3.17237},"chantilly-gouvieux":{"code":"chantilly-gouvieux","name":"Chantilly-Gouvieux","lat":49.18698,"lon":2.45957},"chantonnay":{"code":"chantonnay","name":"Chantonnay","lat":46.68997,"lon":-1.05461},"chapeauroux":{"code":"chapeauroux","name":"Chapeauroux","lat":44.83787,"lon":3.74165},"chaponost":{"code":"chaponost","name":"Chaponost","lat":45.69849,"lon":4.76451},"chaponval":{"code":"chaponval","name":"Chaponval","lat":49.06881,"lon":2.14056},"charbonni\u00e8res-les-bains":{"code":"charbonni\u00e8res-les-bains","name":"Charbonni\u00e8res-les-Bains","lat":45.78226,"lon":4.73574},"charleville-m\u00e9zi\u00e8res":{"code":"charleville-m\u00e9zi\u00e8res","name":"Charleville-M\u00e9zi\u00e8res","lat":49.76788,"lon":4.72513},"charmes-vosges":{"code":"charmes-vosges","name":"Charmes (Vosges)","lat":48.37855,"lon":6.30193},"chars":{"code":"chars","name":"Chars","lat":49.16299,"lon":1.9367},"chartres":{"code":"chartres","name":"Chartres","lat":48.44881,"lon":1.48134},"chartrettes":{"code":"chartrettes","name":"Chartrettes","lat":48.4869,"lon":2.69597},"chasseneuil-vienne":{"code":"chasseneuil-vienne","name":"Chasseneuil (Vienne)","lat":46.6518,"lon":0.37282},"chasseneuil-sur-bonnieure":{"code":"chasseneuil-sur-bonnieure","name":"Chasseneuil-sur-Bonnieure","lat":45.82345,"lon":0.45207},"chasserad\u00e8s":{"code":"chasserad\u00e8s","name":"Chasserad\u00e8s","lat":44.55397,"lon":3.83969},"chasse-sur-rh\u00f4ne":{"code":"chasse-sur-rh\u00f4ne","name":"Chasse-sur-Rh\u00f4ne","lat":45.58256,"lon":4.7955},"ch\u00e2teau-arnoux-st-auban":{"code":"ch\u00e2teau-arnoux-st-auban","name":"Ch\u00e2teau-Arnoux-St-Auban","lat":44.06082,"lon":5.99713},"ch\u00e2teaubourg":{"code":"ch\u00e2teaubourg","name":"Ch\u00e2teaubourg","lat":48.10616,"lon":-1.40529},"ch\u00e2teaubriant":{"code":"ch\u00e2teaubriant","name":"Ch\u00e2teaubriant","lat":47.71247,"lon":-1.37269},"ch\u00e2teau-du-loir":{"code":"ch\u00e2teau-du-loir","name":"Ch\u00e2teau-du-Loir","lat":47.68305,"lon":0.41582},"ch\u00e2teaudun":{"code":"ch\u00e2teaudun","name":"Ch\u00e2teaudun","lat":48.07353,"lon":1.33843},"ch\u00e2teau-gaillard":{"code":"ch\u00e2teau-gaillard","name":"Ch\u00e2teau-Gaillard","lat":48.14038,"lon":1.91204},"ch\u00e2teau-l'\u00c9v\u00eaque":{"code":"ch\u00e2teau-l'\u00c9v\u00eaque","name":"Ch\u00e2teau-l'\u00c9v\u00eaque","lat":45.24471,"lon":0.68845},"ch\u00e2teaulin-embranchement":{"code":"ch\u00e2teaulin-embranchement","name":"Ch\u00e2teaulin-Embranchement","lat":48.20107,"lon":-4.09485},"ch\u00e2teauneuf-bujaleuf":{"code":"ch\u00e2teauneuf-bujaleuf","name":"Ch\u00e2teauneuf-Bujaleuf","lat":45.76056,"lon":1.64525},"ch\u00e2teauneuf-sur-charente":{"code":"ch\u00e2teauneuf-sur-charente","name":"Ch\u00e2teauneuf-sur-Charente","lat":45.59998,"lon":-0.0502},"ch\u00e2teauneuf-sur-cher":{"code":"ch\u00e2teauneuf-sur-cher","name":"Ch\u00e2teauneuf-sur-Cher","lat":46.85577,"lon":2.31164},"ch\u00e2teau-renault":{"code":"ch\u00e2teau-renault","name":"Ch\u00e2teau-Renault","lat":47.58829,"lon":0.9016},"ch\u00e2teauroux":{"code":"ch\u00e2teauroux","name":"Ch\u00e2teauroux","lat":44.60968,"lon":6.53017},"ch\u00e2teau-thierry":{"code":"ch\u00e2teau-thierry","name":"Ch\u00e2teau-Thierry","lat":49.03791,"lon":3.40941},"ch\u00e2telaillon":{"code":"ch\u00e2telaillon","name":"Ch\u00e2telaillon","lat":46.07857,"lon":-1.0912},"ch\u00e2telaudren-plouagat":{"code":"ch\u00e2telaudren-plouagat","name":"Ch\u00e2telaudren-Plouagat","lat":48.5332,"lon":-2.97415},"ch\u00e2tel-censoir":{"code":"ch\u00e2tel-censoir","name":"Ch\u00e2tel-Censoir","lat":47.53766,"lon":3.63508},"ch\u00e2tellerault":{"code":"ch\u00e2tellerault","name":"Ch\u00e2tellerault","lat":46.81867,"lon":0.54959},"ch\u00e2tel-nomexy":{"code":"ch\u00e2tel-nomexy","name":"Ch\u00e2tel-Nomexy","lat":48.30755,"lon":6.38718},"ch\u00e2tillon-d'azergues":{"code":"ch\u00e2tillon-d'azergues","name":"Ch\u00e2tillon-d'Azergues","lat":45.87504,"lon":4.64527},"chauffailles":{"code":"chauffailles","name":"Chauffailles","lat":46.20738,"lon":4.34571},"chaugey":{"code":"chaugey","name":"Chaugey","lat":47.08754,"lon":5.25505},"chaulnes":{"code":"chaulnes","name":"Chaulnes","lat":49.80709,"lon":2.80177},"chaumont":{"code":"chaumont","name":"Chaumont","lat":48.10944,"lon":5.13443},"chaumont-en-vexin":{"code":"chaumont-en-vexin","name":"Chaumont-en-Vexin","lat":49.26141,"lon":1.87173},"chauny":{"code":"chauny","name":"Chauny","lat":49.61047,"lon":3.22266},"chavagnes-les-redoux":{"code":"chavagnes-les-redoux","name":"Chavagnes-les-Redoux","lat":46.72597,"lon":-0.93116},"chaville-rive-droite":{"code":"chaville-rive-droite","name":"Chaville-Rive-Droite","lat":48.81183,"lon":2.18764},"chaville-rive-gauche":{"code":"chaville-rive-gauche","name":"Chaville-Rive-Gauche","lat":48.80517,"lon":2.18951},"chaville-v\u00e9lizy":{"code":"chaville-v\u00e9lizy","name":"Chaville-V\u00e9lizy","lat":48.79983,"lon":2.18318},"chazay-marcilly":{"code":"chazay-marcilly","name":"Chazay-Marcilly","lat":45.87375,"lon":4.72648},"chedde-voie-\u00c9troite":{"code":"chedde-voie-\u00c9troite","name":"Chedde-Voie-\u00c9troite","lat":45.9265,"lon":6.71962},"chef-du-pont-ste-m\u00e8re":{"code":"chef-du-pont-ste-m\u00e8re","name":"Chef-du-Pont-Ste-M\u00e8re","lat":49.38432,"lon":-1.34428},"cheilly-l\u00e8s-maranges":{"code":"cheilly-l\u00e8s-maranges","name":"Cheilly-l\u00e8s-Maranges","lat":46.89283,"lon":4.676},"chelles-gournay":{"code":"chelles-gournay","name":"Chelles-Gournay","lat":48.87427,"lon":2.5832},"chemill\u00e9":{"code":"chemill\u00e9","name":"Chemill\u00e9","lat":47.21776,"lon":-0.73231},"chemilly-appoigny":{"code":"chemilly-appoigny","name":"Chemilly-Appoigny","lat":47.89741,"lon":3.5543},"chemin-d'antony":{"code":"chemin-d'antony","name":"Chemin-d'Antony","lat":48.74805,"lon":2.31326},"chenay-gagny":{"code":"chenay-gagny","name":"Chenay-Gagny","lat":48.87747,"lon":2.55268},"chenevi\u00e8res":{"code":"chenevi\u00e8res","name":"Chenevi\u00e8res","lat":48.51924,"lon":6.63303},"chenonceaux-chisseaux":{"code":"chenonceaux-chisseaux","name":"Chenonceaux-Chisseaux","lat":47.3306,"lon":1.06596},"cheny":{"code":"cheny","name":"Cheny","lat":47.94672,"lon":3.52643},"chepy-valines":{"code":"chepy-valines","name":"Chepy-Valines","lat":50.06818,"lon":1.63518},"cherbourg":{"code":"cherbourg","name":"Cherbourg","lat":49.63445,"lon":-1.61839},"chessy":{"code":"chessy","name":"Chessy","lat":45.88546,"lon":4.62229},"chevaign\u00e9":{"code":"chevaign\u00e9","name":"Chevaign\u00e9","lat":48.2089,"lon":-1.63115},"chevillon":{"code":"chevillon","name":"Chevillon","lat":48.52427,"lon":5.11183},"chevilly":{"code":"chevilly","name":"Chevilly","lat":48.02667,"lon":1.87911},"ch\u00e8vremont":{"code":"ch\u00e8vremont","name":"Ch\u00e8vremont","lat":47.62166,"lon":6.92074},"chevri\u00e8res":{"code":"chevri\u00e8res","name":"Chevri\u00e8res","lat":49.33727,"lon":2.68293},"ch\u00e9zy-sur-marne":{"code":"ch\u00e9zy-sur-marne","name":"Ch\u00e9zy-sur-Marne","lat":48.99189,"lon":3.36438},"chilly-mazarin":{"code":"chilly-mazarin","name":"Chilly-Mazarin","lat":48.69997,"lon":2.30952},"chindrieux":{"code":"chindrieux","name":"Chindrieux","lat":45.80331,"lon":5.84668},"chinon":{"code":"chinon","name":"Chinon","lat":47.16306,"lon":0.25205},"chirac":{"code":"chirac","name":"Chirac","lat":44.52288,"lon":3.2645},"chissay-en-touraine":{"code":"chissay-en-touraine","name":"Chissay-en-Touraine","lat":47.33499,"lon":1.13485},"chocques":{"code":"chocques","name":"Chocques","lat":50.5382,"lon":2.56493},"choisy-au-bac":{"code":"choisy-au-bac","name":"Choisy-au-Bac","lat":49.44232,"lon":2.86228},"choisy-le-roi":{"code":"choisy-le-roi","name":"Choisy-le-Roi","lat":48.764,"lon":2.41118},"cholet":{"code":"cholet","name":"Cholet","lat":47.06631,"lon":-0.87047},"chorges":{"code":"chorges","name":"Chorges","lat":44.54571,"lon":6.27207},"chouzy":{"code":"chouzy","name":"Chouzy","lat":47.52052,"lon":1.24799},"cinq-mars":{"code":"cinq-mars","name":"Cinq-Mars","lat":47.3448,"lon":0.46008},"cintegabelle":{"code":"cintegabelle","name":"Cintegabelle","lat":43.30537,"lon":1.5205},"cires-l\u00e8s-mello":{"code":"cires-l\u00e8s-mello","name":"Cires-l\u00e8s-Mello","lat":49.27039,"lon":2.36034},"ciry-le-noble":{"code":"ciry-le-noble","name":"Ciry-le-Noble","lat":46.60439,"lon":4.3007},"civrieux-d'azergues":{"code":"civrieux-d'azergues","name":"Civrieux-d'Azergues","lat":45.86009,"lon":4.71908},"cize-bolozon":{"code":"cize-bolozon","name":"Cize-Bolozon","lat":46.21357,"lon":5.45386},"clacy-mons":{"code":"clacy-mons","name":"Clacy-Mons","lat":49.54358,"lon":3.57638},"clamart":{"code":"clamart","name":"Clamart","lat":48.81417,"lon":2.27419},"clamecy":{"code":"clamecy","name":"Clamecy","lat":47.46705,"lon":3.52058},"clelles-mens":{"code":"clelles-mens","name":"Clelles-Mens","lat":44.82702,"lon":5.60472},"cl\u00e8res":{"code":"cl\u00e8res","name":"Cl\u00e8res","lat":49.59955,"lon":1.10645},"clermont-de-l'oise":{"code":"clermont-de-l'oise","name":"Clermont-de-l'Oise","lat":49.38545,"lon":2.41752},"clermont-en-argonne":{"code":"clermont-en-argonne","name":"Clermont-en-Argonne","lat":49.1066,"lon":5.06526},"clermont-ferrand":{"code":"clermont-ferrand","name":"Clermont-Ferrand","lat":45.77857,"lon":3.10052},"clermont-la-pardieu":{"code":"clermont-la-pardieu","name":"Clermont-La Pardieu","lat":45.76785,"lon":3.13264},"clerval":{"code":"clerval","name":"Clerval","lat":47.39637,"lon":6.49221},"clichy-levallois":{"code":"clichy-levallois","name":"Clichy-Levallois","lat":48.89771,"lon":2.29727},"clion-sur-seugne":{"code":"clion-sur-seugne","name":"Clion-sur-Seugne","lat":45.4785,"lon":-0.5021},"clisson":{"code":"clisson","name":"Clisson","lat":47.08585,"lon":-1.28675},"cloyes":{"code":"cloyes","name":"Cloyes","lat":47.99225,"lon":1.2434},"cluses":{"code":"cluses","name":"Cluses","lat":46.06148,"lon":6.58277},"coarraze-nay":{"code":"coarraze-nay","name":"Coarraze-Nay","lat":43.18178,"lon":-0.24181},"coat-gu\u00e9gan":{"code":"coat-gu\u00e9gan","name":"Coat-Gu\u00e9gan","lat":48.48044,"lon":-3.27372},"cobrieux":{"code":"cobrieux","name":"Cobrieux","lat":50.53809,"lon":3.21956},"cognac":{"code":"cognac","name":"Cognac","lat":45.68446,"lon":-0.32616},"coigni\u00e8res":{"code":"coigni\u00e8res","name":"Coigni\u00e8res","lat":48.74403,"lon":1.92181},"collioure":{"code":"collioure","name":"Collioure","lat":42.52306,"lon":3.08302},"collonges-c\u00f4te-d'or":{"code":"collonges-c\u00f4te-d'or","name":"Collonges (C\u00f4te-d'Or)","lat":47.22086,"lon":5.26615},"collonges-fontaines":{"code":"collonges-fontaines","name":"Collonges-Fontaines","lat":45.82884,"lon":4.84636},"colmar":{"code":"colmar","name":"Colmar","lat":48.0732,"lon":7.34697},"colmar-m\u00e9sanges":{"code":"colmar-m\u00e9sanges","name":"Colmar-M\u00e9sanges","lat":48.08576,"lon":7.33399},"colmar-st-joseph":{"code":"colmar-st-joseph","name":"Colmar-St-Joseph","lat":48.08211,"lon":7.34377},"colombes":{"code":"colombes","name":"Colombes","lat":48.92389,"lon":2.25916},"colombier-fontaine":{"code":"colombier-fontaine","name":"Colombier-Fontaine","lat":47.4556,"lon":6.68932},"colomiers":{"code":"colomiers","name":"Colomiers","lat":43.60327,"lon":1.33411},"colomiers-lyc\u00e9e-international":{"code":"colomiers-lyc\u00e9e-international","name":"Colomiers-Lyc\u00e9e-International","lat":43.61643,"lon":1.31393},"colroy-lubine":{"code":"colroy-lubine","name":"Colroy-Lubine","lat":48.31464,"lon":7.13088},"combourg":{"code":"combourg","name":"Combourg","lat":48.41598,"lon":-1.72754},"combs-la-ville-quincy":{"code":"combs-la-ville-quincy","name":"Combs-la-Ville-Quincy","lat":48.66746,"lon":2.54797},"comines-france":{"code":"comines-france","name":"Comines-France","lat":50.76111,"lon":3.01013},"commentry":{"code":"commentry","name":"Commentry","lat":46.2955,"lon":2.74178},"commercy":{"code":"commercy","name":"Commercy","lat":48.76575,"lon":5.58892},"compans":{"code":"compans","name":"Compans","lat":48.9916,"lon":2.66521},"compi\u00e8gne":{"code":"compi\u00e8gne","name":"Compi\u00e8gne","lat":49.42273,"lon":2.82445},"conches":{"code":"conches","name":"Conches","lat":48.96234,"lon":0.93897},"condat-le-lardin":{"code":"condat-le-lardin","name":"Condat-le-Lardin","lat":45.12671,"lon":1.22665},"cond\u00e9-sur-huisne":{"code":"cond\u00e9-sur-huisne","name":"Cond\u00e9-sur-Huisne","lat":48.38351,"lon":0.84897},"conflans-fin-d'oise":{"code":"conflans-fin-d'oise","name":"Conflans-Fin-d'Oise","lat":48.98831,"lon":2.07468},"conflans-jarny":{"code":"conflans-jarny","name":"Conflans-Jarny","lat":49.16666,"lon":5.86811},"conflans-sainte-honorine":{"code":"conflans-sainte-honorine","name":"Conflans-Sainte-Honorine","lat":48.99678,"lon":2.0988},"conlie":{"code":"conlie","name":"Conlie","lat":48.12716,"lon":-0.01107},"connerr\u00e9-beill\u00e9":{"code":"connerr\u00e9-beill\u00e9","name":"Connerr\u00e9-Beill\u00e9","lat":48.07413,"lon":0.48764},"contrex\u00e9ville":{"code":"contrex\u00e9ville","name":"Contrex\u00e9ville","lat":48.17928,"lon":5.88997},"corbehem":{"code":"corbehem","name":"Corbehem","lat":50.3434,"lon":3.04112},"corbeil-essonnes":{"code":"corbeil-essonnes","name":"Corbeil-Essonnes","lat":48.61464,"lon":2.47399},"corbie":{"code":"corbie","name":"Corbie","lat":49.91199,"lon":2.50005},"corbigny":{"code":"corbigny","name":"Corbigny","lat":47.25452,"lon":3.6774},"corcieux-van\u00e9mont":{"code":"corcieux-van\u00e9mont","name":"Corcieux-Van\u00e9mont","lat":48.19841,"lon":6.8775},"corcy":{"code":"corcy","name":"Corcy","lat":49.25536,"lon":3.21605},"cordemais":{"code":"cordemais","name":"Cordemais","lat":47.30202,"lon":-1.84617},"cordesse-igornay":{"code":"cordesse-igornay","name":"Cordesse-Igornay","lat":47.05115,"lon":4.34297},"cordes-vindrac":{"code":"cordes-vindrac","name":"Cordes-Vindrac","lat":44.06701,"lon":1.89999},"corgoloin":{"code":"corgoloin","name":"Corgoloin","lat":47.08425,"lon":4.91721},"cormeilles-en-parisis":{"code":"cormeilles-en-parisis","name":"Cormeilles-en-Parisis","lat":48.96852,"lon":2.19345},"cormery":{"code":"cormery","name":"Cormery","lat":47.26236,"lon":0.83383},"cornil":{"code":"cornil","name":"Cornil","lat":45.21528,"lon":1.69742},"coron-de-m\u00e9ricourt":{"code":"coron-de-m\u00e9ricourt","name":"Coron-de-M\u00e9ricourt","lat":50.4149,"lon":2.88478},"corps-nuds":{"code":"corps-nuds","name":"Corps-Nuds","lat":47.98562,"lon":-1.57547},"corr\u00e8ze":{"code":"corr\u00e8ze","name":"Corr\u00e8ze","lat":45.32934,"lon":1.88039},"corseul-languenan":{"code":"corseul-languenan","name":"Corseul-Languenan","lat":48.49601,"lon":-2.14141},"cosne-sur-loire":{"code":"cosne-sur-loire","name":"Cosne-sur-Loire","lat":47.41399,"lon":2.93204},"coucy-les-eppes":{"code":"coucy-les-eppes","name":"Coucy-les-Eppes","lat":49.55563,"lon":3.77588},"coudekerque-branche":{"code":"coudekerque-branche","name":"Coudekerque-Branche","lat":51.01886,"lon":2.37482},"coudray-montceaux":{"code":"coudray-montceaux","name":"Coudray-Montceaux","lat":48.56622,"lon":2.49227},"cou\u00e9ron":{"code":"cou\u00e9ron","name":"Cou\u00e9ron","lat":47.22217,"lon":-1.72469},"couffoulens-leuc":{"code":"couffoulens-leuc","name":"Couffoulens-Leuc","lat":43.15518,"lon":2.31694},"couilly-st-germain":{"code":"couilly-st-germain","name":"Couilly-St-Germain","lat":48.88281,"lon":2.85426},"couiza-montazels":{"code":"couiza-montazels","name":"Couiza-Montazels","lat":42.9426,"lon":2.24834},"coulanges-sur-yonne":{"code":"coulanges-sur-yonne","name":"Coulanges-sur-Yonne","lat":47.52681,"lon":3.54682},"couliboeuf":{"code":"couliboeuf","name":"Couliboeuf","lat":48.92359,"lon":-0.09849},"coulommiers":{"code":"coulommiers","name":"Coulommiers","lat":48.80765,"lon":3.08182},"courbevoie":{"code":"courbevoie","name":"Courbevoie","lat":48.89786,"lon":2.24778},"courcay-tauxigny":{"code":"courcay-tauxigny","name":"Courcay-Tauxigny","lat":47.23783,"lon":0.86763},"courcelles-le-comte":{"code":"courcelles-le-comte","name":"Courcelles-le-Comte","lat":50.16876,"lon":2.78775},"courcelles-sur-nied":{"code":"courcelles-sur-nied","name":"Courcelles-sur-Nied","lat":49.06352,"lon":6.31099},"courcy-brimont":{"code":"courcy-brimont","name":"Courcy-Brimont","lat":49.32916,"lon":4.01496},"courghain":{"code":"courghain","name":"Courghain","lat":50.99691,"lon":2.29306},"coursan":{"code":"coursan","name":"Coursan","lat":43.23355,"lon":3.05068},"courtalain-st-pellerin":{"code":"courtalain-st-pellerin","name":"Courtalain-St-Pellerin","lat":48.07369,"lon":1.1266},"courth\u00e9zon":{"code":"courth\u00e9zon","name":"Courth\u00e9zon","lat":44.09031,"lon":4.88843},"courville-sur-eure":{"code":"courville-sur-eure","name":"Courville-sur-Eure","lat":48.45157,"lon":1.23482},"cousance":{"code":"cousance","name":"Cousance","lat":46.53514,"lon":5.38686},"coussac-bonneval":{"code":"coussac-bonneval","name":"Coussac-Bonneval","lat":45.50797,"lon":1.31028},"coutances":{"code":"coutances","name":"Coutances","lat":49.04281,"lon":-1.44127},"coutras":{"code":"coutras","name":"Coutras","lat":45.03668,"lon":-0.13141},"couze":{"code":"couze","name":"Couze","lat":44.83663,"lon":0.7029},"couzon-au-mont-d'or":{"code":"couzon-au-mont-d'or","name":"Couzon-au-Mont-d'Or","lat":45.84843,"lon":4.82913},"cramoisy":{"code":"cramoisy","name":"Cramoisy","lat":49.25635,"lon":2.40548},"cransac":{"code":"cransac","name":"Cransac","lat":44.52297,"lon":2.27117},"cravant-bazarnes":{"code":"cravant-bazarnes","name":"Cravant-Bazarnes","lat":47.67981,"lon":3.68089},"cr\u00eaches-sur-sa\u00f4ne":{"code":"cr\u00eaches-sur-sa\u00f4ne","name":"Cr\u00eaches-sur-Sa\u00f4ne","lat":46.24608,"lon":4.78406},"cr\u00e9cy-en-brie-la-chapelle":{"code":"cr\u00e9cy-en-brie-la-chapelle","name":"Cr\u00e9cy-en-Brie-La Chapelle","lat":48.85966,"lon":2.90564},"creil":{"code":"creil","name":"Creil","lat":49.26335,"lon":2.46784},"cr\u00e9pieux-la-pape":{"code":"cr\u00e9pieux-la-pape","name":"Cr\u00e9pieux-la-Pape","lat":45.8037,"lon":4.89265},"cr\u00e9py-couvron":{"code":"cr\u00e9py-couvron","name":"Cr\u00e9py-Couvron","lat":49.62352,"lon":3.51666},"cr\u00e9py-en-valois":{"code":"cr\u00e9py-en-valois","name":"Cr\u00e9py-en-Valois","lat":49.23122,"lon":2.88844},"crest":{"code":"crest","name":"Crest","lat":44.72982,"lon":5.01621},"creysse-mouleydier":{"code":"creysse-mouleydier","name":"Creysse-Mouleydier","lat":44.85563,"lon":0.58144},"criss\u00e9":{"code":"criss\u00e9","name":"Criss\u00e9","lat":48.16752,"lon":-0.0651},"croix-d'hins":{"code":"croix-d'hins","name":"Croix-d'Hins","lat":44.70967,"lon":-0.81591},"croix-l'allumette":{"code":"croix-l'allumette","name":"Croix-l'Allumette","lat":50.68651,"lon":3.15068},"croix-sainte":{"code":"croix-sainte","name":"Croix-Sainte","lat":43.40873,"lon":5.01973},"croix-wasquehal":{"code":"croix-wasquehal","name":"Croix-Wasquehal","lat":50.67858,"lon":3.13773},"cros-de-cagnes":{"code":"cros-de-cagnes","name":"Cros-de-Cagnes","lat":43.66025,"lon":7.16622},"crouy":{"code":"crouy","name":"Crouy","lat":49.40381,"lon":3.3567},"crouy-sur-ourcq":{"code":"crouy-sur-ourcq","name":"Crouy-sur-Ourcq","lat":49.09155,"lon":3.0629},"cubzac-les-ponts":{"code":"cubzac-les-ponts","name":"Cubzac-les-Ponts","lat":44.97295,"lon":-0.45923},"cuers-pierrefeu":{"code":"cuers-pierrefeu","name":"Cuers-Pierrefeu","lat":43.23773,"lon":6.08604},"cugand-la-bernardi\u00e8re":{"code":"cugand-la-bernardi\u00e8re","name":"Cugand-la-Bernardi\u00e8re","lat":47.05769,"lon":-1.2517},"cuinchy":{"code":"cuinchy","name":"Cuinchy","lat":50.52207,"lon":2.74521},"culmont-chalindrey":{"code":"culmont-chalindrey","name":"Culmont-Chalindrey","lat":47.80974,"lon":5.44302},"culoz":{"code":"culoz","name":"Culoz","lat":45.84276,"lon":5.77849},"cysoing":{"code":"cysoing","name":"Cysoing","lat":50.56058,"lon":3.2113},"dachstein":{"code":"dachstein","name":"Dachstein","lat":48.54273,"lon":7.53269},"dambach-la-ville":{"code":"dambach-la-ville","name":"Dambach-la-Ville","lat":48.3212,"lon":7.43551},"damblain":{"code":"damblain","name":"Damblain","lat":48.09365,"lon":5.65631},"damiatte-st-paul":{"code":"damiatte-st-paul","name":"Damiatte-St-Paul","lat":43.65623,"lon":1.97431},"dammartin-juilly-st-mard":{"code":"dammartin-juilly-st-mard","name":"Dammartin-Juilly-St-Mard","lat":49.03245,"lon":2.69951},"dang\u00e9":{"code":"dang\u00e9","name":"Dang\u00e9","lat":46.93782,"lon":0.60878},"dannemarie":{"code":"dannemarie","name":"Dannemarie","lat":47.62741,"lon":7.1239},"dannemarie-velesmes":{"code":"dannemarie-velesmes","name":"Dannemarie-Velesmes","lat":47.20376,"lon":5.87362},"dannes-camiers":{"code":"dannes-camiers","name":"Dannes-Camiers","lat":50.57621,"lon":1.61484},"daours":{"code":"daours","name":"Daours","lat":49.89905,"lon":2.45884},"dardilly-le-jubin":{"code":"dardilly-le-jubin","name":"Dardilly-le-Jubin","lat":45.81457,"lon":4.76167},"dardilly-les-mouilles":{"code":"dardilly-les-mouilles","name":"Dardilly-les-Mouilles","lat":45.7959,"lon":4.76002},"darsac":{"code":"darsac","name":"Darsac","lat":45.14231,"lon":3.73615},"dax":{"code":"dax","name":"Dax","lat":43.72081,"lon":-1.05051},"decize":{"code":"decize","name":"Decize","lat":46.83745,"lon":3.46752},"d\u00e9gagnac":{"code":"d\u00e9gagnac","name":"D\u00e9gagnac","lat":44.6535,"lon":1.34016},"deluz":{"code":"deluz","name":"Deluz","lat":47.29287,"lon":6.19995},"denain":{"code":"denain","name":"Denain","lat":50.33479,"lon":3.3881},"dercy-froidmont":{"code":"dercy-froidmont","name":"Dercy-Froidmont","lat":49.70273,"lon":3.69204},"dettwiller":{"code":"dettwiller","name":"Dettwiller","lat":48.7517,"lon":7.46539},"deuil-montmagny":{"code":"deuil-montmagny","name":"Deuil-Montmagny","lat":48.97561,"lon":2.33778},"de\u00fbl\u00e9mont":{"code":"de\u00fbl\u00e9mont","name":"De\u00fbl\u00e9mont","lat":50.71643,"lon":2.9938},"deville":{"code":"deville","name":"Deville","lat":49.87955,"lon":4.70702},"diarville":{"code":"diarville","name":"Diarville","lat":48.39783,"lon":6.12632},"die":{"code":"die","name":"Die","lat":44.75813,"lon":5.36294},"diemeringen":{"code":"diemeringen","name":"Diemeringen","lat":48.941,"lon":7.18478},"dieppe":{"code":"dieppe","name":"Dieppe","lat":49.91679,"lon":1.08117},"dieulouard":{"code":"dieulouard","name":"Dieulouard","lat":48.84367,"lon":6.07129},"dieupentale":{"code":"dieupentale","name":"Dieupentale","lat":43.86526,"lon":1.27601},"digoin":{"code":"digoin","name":"Digoin","lat":46.48547,"lon":3.99296},"dijon-porte-neuve":{"code":"dijon-porte-neuve","name":"Dijon-Porte-Neuve","lat":47.32309,"lon":5.05516},"dijon-ville":{"code":"dijon-ville","name":"Dijon-Ville","lat":47.3235,"lon":5.02588},"dinan":{"code":"dinan","name":"Dinan","lat":48.45697,"lon":-2.05298},"ding\u00e9":{"code":"ding\u00e9","name":"Ding\u00e9","lat":48.35013,"lon":-1.68583},"diou-allier":{"code":"diou-allier","name":"Diou (Allier)","lat":46.53074,"lon":3.7525},"dirinon":{"code":"dirinon","name":"Dirinon","lat":48.3926,"lon":-4.28559},"dissay-vienne":{"code":"dissay-vienne","name":"Dissay (Vienne)","lat":46.70374,"lon":0.42113},"distroff":{"code":"distroff","name":"Distroff","lat":49.33512,"lon":6.26022},"dives-cabourg":{"code":"dives-cabourg","name":"Dives-Cabourg","lat":49.28236,"lon":-0.10986},"dives-sur-mer-port-guillaume":{"code":"dives-sur-mer-port-guillaume","name":"Dives-sur-Mer-Port-Guillaume","lat":49.2892,"lon":-0.10407},"docelles-chenim\u00e9nil":{"code":"docelles-chenim\u00e9nil","name":"Docelles-Chenim\u00e9nil","lat":48.14334,"lon":6.61017},"dol":{"code":"dol","name":"Dol","lat":48.54298,"lon":-1.75046},"dole-ville":{"code":"dole-ville","name":"Dole-Ville","lat":47.09641,"lon":5.48797},"dombasle-sur-meurthe":{"code":"dombasle-sur-meurthe","name":"Dombasle-sur-Meurthe","lat":48.62335,"lon":6.34354},"domblans-voiteur":{"code":"domblans-voiteur","name":"Domblans-Voiteur","lat":46.76106,"lon":5.59763},"domfront-sarthe":{"code":"domfront-sarthe","name":"Domfront (Sarthe)","lat":48.10776,"lon":0.02602},"dommartin-lissieu":{"code":"dommartin-lissieu","name":"Dommartin-Lissieu","lat":45.8469,"lon":4.73196},"dommartin-remiencourt":{"code":"dommartin-remiencourt","name":"Dommartin-Remiencourt","lat":49.79799,"lon":2.39189},"domont":{"code":"domont","name":"Domont","lat":49.03288,"lon":2.33785},"dompierre-nord":{"code":"dompierre-nord","name":"Dompierre (Nord)","lat":50.14621,"lon":3.87139},"dompierre-sept-fons":{"code":"dompierre-sept-fons","name":"Dompierre-Sept-Fons","lat":46.52643,"lon":3.67544},"donchery":{"code":"donchery","name":"Donchery","lat":49.69813,"lon":4.87458},"donges":{"code":"donges","name":"Donges","lat":47.30884,"lon":-2.07253},"donjeux":{"code":"donjeux","name":"Donjeux","lat":48.36593,"lon":5.14842},"don-sainghin":{"code":"don-sainghin","name":"Don-Sainghin","lat":50.55189,"lon":2.91415},"donz\u00e8re":{"code":"donz\u00e8re","name":"Donz\u00e8re","lat":44.44276,"lon":4.70454},"dordives":{"code":"dordives","name":"Dordives","lat":48.14765,"lon":2.76253},"dorlisheim":{"code":"dorlisheim","name":"Dorlisheim","lat":48.52429,"lon":7.49283},"dormans":{"code":"dormans","name":"Dormans","lat":49.07925,"lon":3.64174},"douai":{"code":"douai","name":"Douai","lat":50.37329,"lon":3.09077},"dourdan":{"code":"dourdan","name":"Dourdan","lat":48.53354,"lon":2.01016},"dourdan-la-for\u00eat":{"code":"dourdan-la-for\u00eat","name":"Dourdan-la-For\u00eat","lat":48.53556,"lon":1.99694},"dourges":{"code":"dourges","name":"Dourges","lat":50.43153,"lon":2.98579},"douzillac":{"code":"douzillac","name":"Douzillac","lat":45.07936,"lon":0.41703},"dracy-saint-loup":{"code":"dracy-saint-loup","name":"Dracy-Saint-Loup","lat":47.00837,"lon":4.3435},"drancy":{"code":"drancy","name":"Drancy","lat":48.93252,"lon":2.45561},"drap-cantaron":{"code":"drap-cantaron","name":"Drap-Cantaron","lat":43.75962,"lon":7.31681},"dreffeac":{"code":"dreffeac","name":"Dreffeac","lat":47.48182,"lon":-2.05032},"dreuil-l\u00e8s-amiens":{"code":"dreuil-l\u00e8s-amiens","name":"Dreuil-l\u00e8s-Amiens","lat":49.91514,"lon":2.2281},"dreux":{"code":"dreux","name":"Dreux","lat":48.73122,"lon":1.37065},"drusenheim":{"code":"drusenheim","name":"Drusenheim","lat":48.7659,"lon":7.94738},"druye":{"code":"druye","name":"Druye","lat":47.3068,"lon":0.53547},"dunkerque":{"code":"dunkerque","name":"Dunkerque","lat":51.03464,"lon":2.36454},"duppigheim":{"code":"duppigheim","name":"Duppigheim","lat":48.54405,"lon":7.58708},"durtol-nohanent":{"code":"durtol-nohanent","name":"Durtol-Nohanent","lat":45.79542,"lon":3.04883},"duttlenheim":{"code":"duttlenheim","name":"Duttlenheim","lat":48.54559,"lon":7.56563},"ebblinghem":{"code":"ebblinghem","name":"Ebblinghem","lat":50.73086,"lon":2.40881},"ebersheim":{"code":"ebersheim","name":"Ebersheim","lat":48.30881,"lon":7.49271},"ebersviller":{"code":"ebersviller","name":"Ebersviller","lat":49.27482,"lon":6.41135},"echirolles":{"code":"echirolles","name":"Echirolles","lat":45.15313,"lon":5.71913},"\u00c9commoy":{"code":"\u00c9commoy","name":"\u00c9commoy","lat":47.82401,"lon":0.2694},"\u00c9couch\u00e9":{"code":"\u00c9couch\u00e9","name":"\u00c9couch\u00e9","lat":48.71494,"lon":-0.12113},"\u00c9couen-\u00c9zanville":{"code":"\u00c9couen-\u00c9zanville","name":"\u00c9couen-\u00c9zanville","lat":49.02276,"lon":2.3629},"\u00c9couflant":{"code":"\u00c9couflant","name":"\u00c9couflant","lat":47.50387,"lon":-0.51962},"\u00c9cully-la-demi-lune":{"code":"\u00c9cully-la-demi-lune","name":"\u00c9cully-la-Demi-Lune","lat":45.76596,"lon":4.77969},"\u00c9gletons":{"code":"\u00c9gletons","name":"\u00c9gletons","lat":45.40232,"lon":2.06515},"\u00c9gly":{"code":"\u00c9gly","name":"\u00c9gly","lat":48.58241,"lon":2.22221},"\u00c9guzon":{"code":"\u00c9guzon","name":"\u00c9guzon","lat":46.44043,"lon":1.55203},"eichhoffen":{"code":"eichhoffen","name":"Eichhoffen","lat":48.38231,"lon":7.44986},"einvaux":{"code":"einvaux","name":"Einvaux","lat":48.50311,"lon":6.39275},"elbeuf-st-aubin":{"code":"elbeuf-st-aubin","name":"Elbeuf-St-Aubin","lat":49.30348,"lon":1.00926},"elne":{"code":"elne","name":"Elne","lat":42.59736,"lon":2.96353},"\u00c9loyes":{"code":"\u00c9loyes","name":"\u00c9loyes","lat":48.08623,"lon":6.60032},"embrun":{"code":"embrun","name":"Embrun","lat":44.56686,"lon":6.49626},"\u00c9merainville-pontault-combault":{"code":"\u00c9merainville-pontault-combault","name":"\u00c9merainville-Pontault-Combault","lat":48.80666,"lon":2.6174},"enchenberg":{"code":"enchenberg","name":"Enchenberg","lat":49.01604,"lon":7.33377},"enghien-les-bains":{"code":"enghien-les-bains","name":"Enghien-les-Bains","lat":48.97353,"lon":2.30614},"ennevelin":{"code":"ennevelin","name":"Ennevelin","lat":50.54985,"lon":3.15837},"entzheim":{"code":"entzheim","name":"Entzheim","lat":48.54737,"lon":7.63001},"\u00c9pannes":{"code":"\u00c9pannes","name":"\u00c9pannes","lat":46.24486,"lon":-0.58163},"\u00c9panvilliers":{"code":"\u00c9panvilliers","name":"\u00c9panvilliers","lat":46.22689,"lon":0.23591},"\u00c9pernay":{"code":"\u00c9pernay","name":"\u00c9pernay","lat":49.04652,"lon":3.96024},"\u00c9pernon":{"code":"\u00c9pernon","name":"\u00c9pernon","lat":48.60509,"lon":1.68168},"epfig":{"code":"epfig","name":"Epfig","lat":48.36356,"lon":7.44982},"\u00c9pierre-st-l\u00e9ger":{"code":"\u00c9pierre-st-l\u00e9ger","name":"\u00c9pierre-St-L\u00e9ger","lat":45.45676,"lon":6.29253},"\u00c9pinal":{"code":"\u00c9pinal","name":"\u00c9pinal","lat":48.17758,"lon":6.44141},"\u00c9pinay-sur-orge":{"code":"\u00c9pinay-sur-orge","name":"\u00c9pinay-sur-Orge","lat":48.66934,"lon":2.33224},"\u00c9pinay-sur-seine":{"code":"\u00c9pinay-sur-seine","name":"\u00c9pinay-sur-Seine","lat":48.95408,"lon":2.30237},"\u00c9pinay-villetaneuse":{"code":"\u00c9pinay-villetaneuse","name":"\u00c9pinay-Villetaneuse","lat":48.95849,"lon":2.32797},"\u00c9pluches":{"code":"\u00c9pluches","name":"\u00c9pluches","lat":49.0555,"lon":2.12346},"\u00c9p\u00f4ne-m\u00e9zi\u00e8res":{"code":"\u00c9p\u00f4ne-m\u00e9zi\u00e8res","name":"\u00c9p\u00f4ne-M\u00e9zi\u00e8res","lat":48.96329,"lon":1.80928},"\u00c9pouville":{"code":"\u00c9pouville","name":"\u00c9pouville","lat":49.56679,"lon":0.22425},"\u00c9ragny-neuville":{"code":"\u00c9ragny-neuville","name":"\u00c9ragny-Neuville","lat":49.01825,"lon":2.09097},"ermont-eaubonne":{"code":"ermont-eaubonne","name":"Ermont-Eaubonne","lat":48.98054,"lon":2.27276},"ermont-halte":{"code":"ermont-halte","name":"Ermont-Halte","lat":48.99105,"lon":2.26314},"err":{"code":"err","name":"Err","lat":42.44626,"lon":2.02761},"erstein":{"code":"erstein","name":"Erstein","lat":48.42286,"lon":7.6381},"esbly":{"code":"esbly","name":"Esbly","lat":48.90314,"lon":2.8106},"escalquens":{"code":"escalquens","name":"Escalquens","lat":43.51682,"lon":1.54238},"escaudoeuvres":{"code":"escaudoeuvres","name":"Escaudoeuvres","lat":50.19254,"lon":3.27636},"esches":{"code":"esches","name":"Esches","lat":49.21251,"lon":2.17081},"esp\u00e9raza":{"code":"esp\u00e9raza","name":"Esp\u00e9raza","lat":42.93582,"lon":2.21803},"esquelbecq":{"code":"esquelbecq","name":"Esquelbecq","lat":50.89039,"lon":2.41202},"essonnes-robinson":{"code":"essonnes-robinson","name":"Essonnes-Robinson","lat":48.60618,"lon":2.46368},"estavar":{"code":"estavar","name":"Estavar","lat":42.46301,"lon":2.02327},"estr\u00e9es-st-denis":{"code":"estr\u00e9es-st-denis","name":"Estr\u00e9es-St-Denis","lat":49.43787,"lon":2.64266},"estressin":{"code":"estressin","name":"Estressin","lat":45.54033,"lon":4.86797},"esvres":{"code":"esvres","name":"Esvres","lat":47.28412,"lon":0.78157},"\u00c9tain":{"code":"\u00c9tain","name":"\u00c9tain","lat":49.20771,"lon":5.63949},"\u00c9tainhus-st-romain":{"code":"\u00c9tainhus-st-romain","name":"\u00c9tainhus-St-Romain","lat":49.5608,"lon":0.33055},"\u00c9talans":{"code":"\u00c9talans","name":"\u00c9talans","lat":47.15585,"lon":6.27097},"\u00c9tampes":{"code":"\u00c9tampes","name":"\u00c9tampes","lat":48.43686,"lon":2.159},"\u00c9tang":{"code":"\u00c9tang","name":"\u00c9tang","lat":46.86802,"lon":4.18363},"\u00c9taples-le-touquet":{"code":"\u00c9taples-le-touquet","name":"\u00c9taples-Le Touquet","lat":50.51692,"lon":1.64352},"\u00c9tigny-v\u00e9ron":{"code":"\u00c9tigny-v\u00e9ron","name":"\u00c9tigny-V\u00e9ron","lat":48.13807,"lon":3.28984},"\u00c9tival-clairefontaine":{"code":"\u00c9tival-clairefontaine","name":"\u00c9tival-Clairefontaine","lat":48.36667,"lon":6.87704},"\u00c9tr\u00e9chy":{"code":"\u00c9tr\u00e9chy","name":"\u00c9tr\u00e9chy","lat":48.49364,"lon":2.19445},"\u00c9trich\u00e9-ch\u00e2teauneuf":{"code":"\u00c9trich\u00e9-ch\u00e2teauneuf","name":"\u00c9trich\u00e9-Ch\u00e2teauneuf","lat":47.65681,"lon":-0.46065},"eu":{"code":"eu","name":"Eu","lat":50.0543,"lon":1.41691},"eu-la-mouillette":{"code":"eu-la-mouillette","name":"Eu-la-Mouillette","lat":50.04882,"lon":1.42551},"eurville":{"code":"eurville","name":"Eurville","lat":48.5829,"lon":5.04489},"\u00c9vian-les-bains":{"code":"\u00c9vian-les-bains","name":"\u00c9vian-les-Bains","lat":46.3976,"lon":6.57715},"\u00c9vreux-normandie":{"code":"\u00c9vreux-normandie","name":"\u00c9vreux-Normandie","lat":49.01833,"lon":1.14824},"\u00c9vron":{"code":"\u00c9vron","name":"\u00c9vron","lat":48.15547,"lon":-0.39719},"\u00c9vry":{"code":"\u00c9vry","name":"\u00c9vry","lat":48.63484,"lon":2.45182},"\u00c9vry-courcouronnes":{"code":"\u00c9vry-courcouronnes","name":"\u00c9vry-Courcouronnes","lat":48.62584,"lon":2.4296},"exideuil-sur-vienne":{"code":"exideuil-sur-vienne","name":"Exideuil-sur-Vienne","lat":45.88638,"lon":0.6668},"eygurande-merlines":{"code":"eygurande-merlines","name":"Eygurande-Merlines","lat":45.64515,"lon":2.46058},"eymoutiers-lac-de-vassivi\u00e8re":{"code":"eymoutiers-lac-de-vassivi\u00e8re","name":"Eymoutiers-Lac-de-Vassivi\u00e8re","lat":45.73963,"lon":1.74024},"eze":{"code":"eze","name":"Eze","lat":43.72212,"lon":7.35696},"facture-biganos":{"code":"facture-biganos","name":"Facture Biganos","lat":44.63738,"lon":-0.96575},"famechon":{"code":"famechon","name":"Famechon","lat":49.76756,"lon":2.04356},"farbus":{"code":"farbus","name":"Farbus","lat":50.35769,"lon":2.83114},"far\u00e9bersviller":{"code":"far\u00e9bersviller","name":"Far\u00e9bersviller","lat":49.11809,"lon":6.86159},"faremoutiers-pommeuse":{"code":"faremoutiers-pommeuse","name":"Faremoutiers-Pommeuse","lat":48.80855,"lon":2.99341},"farschviller":{"code":"farschviller","name":"Farschviller","lat":49.08801,"lon":6.90817},"faubourg-d'orl\u00e9ans":{"code":"faubourg-d'orl\u00e9ans","name":"Faubourg-d'Orl\u00e9ans","lat":47.36692,"lon":1.74073},"fauga":{"code":"fauga","name":"Fauga","lat":43.40446,"lon":1.28248},"faulquemont":{"code":"faulquemont","name":"Faulquemont","lat":49.04568,"lon":6.60395},"f\u00e9camp":{"code":"f\u00e9camp","name":"F\u00e9camp","lat":49.75947,"lon":0.3739},"fegersheim-lipsheim":{"code":"fegersheim-lipsheim","name":"Fegersheim-Lipsheim","lat":48.49079,"lon":7.67221},"fellering":{"code":"fellering","name":"Fellering","lat":47.89733,"lon":6.98729},"felletin":{"code":"felletin","name":"Felletin","lat":45.88651,"lon":2.16947},"fenouillet-st-alban":{"code":"fenouillet-st-alban","name":"Fenouillet-St-Alban","lat":43.68407,"lon":1.40155},"f\u00e9pin":{"code":"f\u00e9pin","name":"F\u00e9pin","lat":50.02374,"lon":4.72575},"f\u00e8re-en-tardenois":{"code":"f\u00e8re-en-tardenois","name":"F\u00e8re-en-Tardenois","lat":49.20852,"lon":3.50402},"ferri\u00e8res-fontenay":{"code":"ferri\u00e8res-fontenay","name":"Ferri\u00e8res-Fontenay","lat":48.09663,"lon":2.77221},"feuquerolles":{"code":"feuquerolles","name":"Feuquerolles","lat":50.06485,"lon":1.60491},"feuqui\u00e8res-broquiers":{"code":"feuqui\u00e8res-broquiers","name":"Feuqui\u00e8res-Broquiers","lat":49.65444,"lon":1.83118},"feuqui\u00e8res-fressenneville":{"code":"feuqui\u00e8res-fressenneville","name":"Feuqui\u00e8res-Fressenneville","lat":50.06339,"lon":1.58898},"feurs":{"code":"feurs","name":"Feurs","lat":45.74475,"lon":4.23068},"feyzin":{"code":"feyzin","name":"Feyzin","lat":45.66605,"lon":4.85307},"figeac":{"code":"figeac","name":"Figeac","lat":44.60288,"lon":2.03769},"firminy":{"code":"firminy","name":"Firminy","lat":45.39163,"lon":4.28541},"fismes":{"code":"fismes","name":"Fismes","lat":49.31084,"lon":3.68232},"flavy-le-martel":{"code":"flavy-le-martel","name":"Flavy-le-Martel","lat":49.71872,"lon":3.19061},"flaxlanden":{"code":"flaxlanden","name":"Flaxlanden","lat":47.69845,"lon":7.30421},"flers":{"code":"flers","name":"Flers","lat":48.74438,"lon":-0.57367},"fleurieux-sur-l'arbresle":{"code":"fleurieux-sur-l'arbresle","name":"Fleurieux-sur-l'Arbresle","lat":45.84466,"lon":4.66054},"fleurville-pont-de-vaux":{"code":"fleurville-pont-de-vaux","name":"Fleurville-Pont-de-Vaux","lat":46.45084,"lon":4.88406},"flez-cuzy-tannay":{"code":"flez-cuzy-tannay","name":"Flez-Cuzy-Tannay","lat":47.36285,"lon":3.61517},"fo\u00ebcy":{"code":"fo\u00ebcy","name":"Fo\u00ebcy","lat":47.17603,"lon":2.16206},"foix":{"code":"foix","name":"Foix","lat":42.96966,"lon":1.60699},"folligny":{"code":"folligny","name":"Folligny","lat":48.82981,"lon":-1.40755},"fons-st-mamert":{"code":"fons-st-mamert","name":"Fons-St-Mamert","lat":43.90733,"lon":4.20663},"fontainebleau-avon":{"code":"fontainebleau-avon","name":"Fontainebleau-Avon","lat":48.41621,"lon":2.72679},"fontaine-le-port":{"code":"fontaine-le-port","name":"Fontaine-le-Port","lat":48.48712,"lon":2.75323},"fontaines-d'ozillac":{"code":"fontaines-d'ozillac","name":"Fontaines-d'Ozillac","lat":45.38756,"lon":-0.38396},"fontaines-mercurey":{"code":"fontaines-mercurey","name":"Fontaines-Mercurey","lat":46.85127,"lon":4.77495},"fontan-saorge":{"code":"fontan-saorge","name":"Fontan-Saorge","lat":43.997,"lon":7.55162},"fontenay-le-fleury":{"code":"fontenay-le-fleury","name":"Fontenay-le-Fleury","lat":48.8071,"lon":2.04125},"fontenoy-sur-moselle":{"code":"fontenoy-sur-moselle","name":"Fontenoy-sur-Moselle","lat":48.7114,"lon":5.97988},"fontp\u00e9drouse-st-thomas-les-bains":{"code":"fontp\u00e9drouse-st-thomas-les-bains","name":"Fontp\u00e9drouse-St-Thomas-les-Bains","lat":42.51497,"lon":2.19086},"font-romeu-odeillo-via":{"code":"font-romeu-odeillo-via","name":"Font-Romeu-Odeillo-Via","lat":42.49094,"lon":2.04278},"forbach":{"code":"forbach","name":"Forbach","lat":49.18948,"lon":6.90043},"forges-les-eaux":{"code":"forges-les-eaux","name":"Forges-les-Eaux","lat":49.61386,"lon":1.55326},"formerie":{"code":"formerie","name":"Formerie","lat":49.65468,"lon":1.7237},"fors":{"code":"fors","name":"Fors","lat":46.23461,"lon":-0.40671},"fos-sur-mer":{"code":"fos-sur-mer","name":"Fos-sur-Mer","lat":43.428,"lon":4.97489},"foucart-alvimare":{"code":"foucart-alvimare","name":"Foucart-Alvimare","lat":49.60832,"lon":0.59693},"fouday":{"code":"fouday","name":"Fouday","lat":48.42479,"lon":7.18725},"foug":{"code":"foug","name":"Foug","lat":48.67919,"lon":5.79138},"fougeray-langon":{"code":"fougeray-langon","name":"Fougeray-Langon","lat":47.73023,"lon":-1.85118},"fouger\u00e9":{"code":"fouger\u00e9","name":"Fouger\u00e9","lat":46.66519,"lon":-1.23195},"fouilloy":{"code":"fouilloy","name":"Fouilloy","lat":49.73697,"lon":1.82678},"fouquereuil":{"code":"fouquereuil","name":"Fouquereuil","lat":50.52548,"lon":2.60721},"fourchambault":{"code":"fourchambault","name":"Fourchambault","lat":47.01917,"lon":3.08732},"fourmies":{"code":"fourmies","name":"Fourmies","lat":50.01542,"lon":4.05374},"fours":{"code":"fours","name":"Fours","lat":46.8237,"lon":3.72337},"fraisse-unieux":{"code":"fraisse-unieux","name":"Fraisse-Unieux","lat":45.39499,"lon":4.26082},"francheville":{"code":"francheville","name":"Francheville","lat":45.73139,"lon":4.77028},"franconville-plessis-bouchard":{"code":"franconville-plessis-bouchard","name":"Franconville-Plessis-Bouchard","lat":48.99356,"lon":2.23499},"franois":{"code":"franois","name":"Franois","lat":47.22745,"lon":5.93752},"frasne":{"code":"frasne","name":"Frasne","lat":46.85784,"lon":6.1577},"freistroff":{"code":"freistroff","name":"Freistroff","lat":49.2776,"lon":6.49083},"fr\u00e9jus":{"code":"fr\u00e9jus","name":"Fr\u00e9jus","lat":43.43172,"lon":6.73328},"fr\u00e9jus-st-rapha\u00ebl":{"code":"fr\u00e9jus-st-rapha\u00ebl","name":"Fr\u00e9jus-St-Rapha\u00ebl","lat":43.42879,"lon":6.755},"saint-s\u00e9bastien-fr\u00eane-rond":{"code":"saint-s\u00e9bastien-fr\u00eane-rond","name":"Saint-S\u00e9bastien-Fr\u00eane-Rond","lat":47.19057,"lon":-1.49604},"fr\u00e9nouville-cagny":{"code":"fr\u00e9nouville-cagny","name":"Fr\u00e9nouville-Cagny","lat":49.14043,"lon":-0.25843},"fr\u00e9pillon":{"code":"fr\u00e9pillon","name":"Fr\u00e9pillon","lat":49.04579,"lon":2.19711},"fresnoy-le-grand":{"code":"fresnoy-le-grand","name":"Fresnoy-le-Grand","lat":49.95014,"lon":3.4326},"fressies":{"code":"fressies","name":"Fressies","lat":50.25087,"lon":3.18925},"fr\u00e9teval-mor\u00e9e":{"code":"fr\u00e9teval-mor\u00e9e","name":"Fr\u00e9teval-Mor\u00e9e","lat":47.89204,"lon":1.21188},"fretin-nord":{"code":"fretin-nord","name":"Fretin (Nord)","lat":50.56107,"lon":3.1484},"fr\u00e9vin-capelle":{"code":"fr\u00e9vin-capelle","name":"Fr\u00e9vin-Capelle","lat":50.34723,"lon":2.63452},"fromental":{"code":"fromental","name":"Fromental","lat":46.17131,"lon":1.43246},"froncles-buxi\u00e8res":{"code":"froncles-buxi\u00e8res","name":"Froncles-Buxi\u00e8res","lat":48.29664,"lon":5.1416},"frontenex":{"code":"frontenex","name":"Frontenex","lat":45.6306,"lon":6.31432},"frontignan":{"code":"frontignan","name":"Frontignan","lat":43.44459,"lon":3.75902},"fronville-st-urbain":{"code":"fronville-st-urbain","name":"Fronville-St-Urbain","lat":48.40132,"lon":5.15608},"frouard":{"code":"frouard","name":"Frouard","lat":48.75539,"lon":6.14465},"frynaudour":{"code":"frynaudour","name":"Frynaudour","lat":48.72816,"lon":-3.12861},"fumay":{"code":"fumay","name":"Fumay","lat":49.98622,"lon":4.692},"futuroscope":{"code":"futuroscope","name":"Futuroscope","lat":46.67023,"lon":0.37811},"gadagne":{"code":"gadagne","name":"Gadagne","lat":43.92986,"lon":4.95693},"gagny":{"code":"gagny","name":"Gagny","lat":48.88348,"lon":2.52649},"gaillac":{"code":"gaillac","name":"Gaillac","lat":43.90612,"lon":1.89441},"gaillon-aubevoye":{"code":"gaillon-aubevoye","name":"Gaillon-Aubevoye","lat":49.17468,"lon":1.35263},"gallargues":{"code":"gallargues","name":"Gallargues","lat":43.71601,"lon":4.17105},"galuzot":{"code":"galuzot","name":"Galuzot","lat":46.64246,"lon":4.33008},"gambsheim":{"code":"gambsheim","name":"Gambsheim","lat":48.69492,"lon":7.8789},"gammal":{"code":"gammal","name":"Gammal","lat":44.27041,"lon":4.14666},"gan":{"code":"gan","name":"Gan","lat":43.23429,"lon":-0.39148},"gandrange-amn\u00e9ville":{"code":"gandrange-amn\u00e9ville","name":"Gandrange-Amn\u00e9ville","lat":49.26089,"lon":6.1358},"gannat":{"code":"gannat","name":"Gannat","lat":46.0976,"lon":3.20487},"gannes":{"code":"gannes","name":"Gannes","lat":49.57211,"lon":2.43703},"gap":{"code":"gap","name":"Gap","lat":44.56363,"lon":6.08539},"garanci\u00e8res-la-queue":{"code":"garanci\u00e8res-la-queue","name":"Garanci\u00e8res-la-Queue","lat":48.81042,"lon":1.76458},"garches-marnes-la-coquette":{"code":"garches-marnes-la-coquette","name":"Garches-Marnes-la-Coquette","lat":48.83798,"lon":2.18668},"garchizy":{"code":"garchizy","name":"Garchizy","lat":47.04299,"lon":3.08584},"gardanne":{"code":"gardanne","name":"Gardanne","lat":43.45636,"lon":5.46348},"gardonne":{"code":"gardonne","name":"Gardonne","lat":44.83468,"lon":0.33194},"champagne-ardenne-tgv":{"code":"champagne-ardenne-tgv","name":"Champagne Ardenne TGV","lat":49.21446,"lon":3.99359},"lorraine-tgv":{"code":"lorraine-tgv","name":"Lorraine TGV","lat":48.95081,"lon":6.17043},"meuse-tgv":{"code":"meuse-tgv","name":"Meuse TGV","lat":48.98017,"lon":5.27182},"gargenville":{"code":"gargenville","name":"Gargenville","lat":48.98307,"lon":1.80921},"garges":{"code":"garges","name":"Garges","lat":48.97685,"lon":2.39083},"gauriaguet":{"code":"gauriaguet","name":"Gauriaguet","lat":45.05431,"lon":-0.39929},"gazeran":{"code":"gazeran","name":"Gazeran","lat":48.62596,"lon":1.77085},"gazinet-cestas":{"code":"gazinet-cestas","name":"Gazinet-Cestas","lat":44.7722,"lon":-0.69914},"geispolsheim":{"code":"geispolsheim","name":"Geispolsheim","lat":48.52191,"lon":7.68535},"gemeaux":{"code":"gemeaux","name":"Gemeaux","lat":47.47781,"lon":5.13009},"genech":{"code":"genech","name":"Genech","lat":50.5284,"lon":3.22098},"g\u00e9nelard":{"code":"g\u00e9nelard","name":"G\u00e9nelard","lat":46.58107,"lon":4.23777},"g\u00e9n\u00e9rac":{"code":"g\u00e9n\u00e9rac","name":"G\u00e9n\u00e9rac","lat":43.73298,"lon":4.34415},"genlis":{"code":"genlis","name":"Genlis","lat":47.24448,"lon":5.22387},"gennevilliers":{"code":"gennevilliers","name":"Gennevilliers","lat":48.93339,"lon":2.30749},"g\u00e9nolhac":{"code":"g\u00e9nolhac","name":"G\u00e9nolhac","lat":44.34802,"lon":3.95182},"germaine":{"code":"germaine","name":"Germaine","lat":49.12795,"lon":4.0225},"gertwiller":{"code":"gertwiller","name":"Gertwiller","lat":48.4133,"lon":7.46592},"gerzat":{"code":"gerzat","name":"Gerzat","lat":45.83313,"lon":3.14304},"gestel":{"code":"gestel","name":"Gestel","lat":47.80311,"lon":-3.44336},"gevrey-chambertin":{"code":"gevrey-chambertin","name":"Gevrey-Chambertin","lat":47.22737,"lon":4.99878},"gien":{"code":"gien","name":"Gien","lat":47.69888,"lon":2.63675},"gi\u00e8vres":{"code":"gi\u00e8vres","name":"Gi\u00e8vres","lat":47.27917,"lon":1.66856},"gignac-cressensac":{"code":"gignac-cressensac","name":"Gignac-Cressensac","lat":45.01474,"lon":1.48326},"gilles-guainville":{"code":"gilles-guainville","name":"Gilles-Guainville","lat":48.91499,"lon":1.50557},"gilley":{"code":"gilley","name":"Gilley","lat":47.05046,"lon":6.49255},"gilly-sur-loire":{"code":"gilly-sur-loire","name":"Gilly-sur-Loire","lat":46.53666,"lon":3.78334},"gironde":{"code":"gironde","name":"Gironde","lat":44.58334,"lon":-0.09246},"gisors":{"code":"gisors","name":"Gisors","lat":49.28526,"lon":1.78505},"givet":{"code":"givet","name":"Givet","lat":50.14025,"lon":4.81799},"givors-canal":{"code":"givors-canal","name":"Givors-Canal","lat":45.59594,"lon":4.77215},"givors-ville":{"code":"givors-ville","name":"Givors-Ville","lat":45.58537,"lon":4.76625},"glos-montfort":{"code":"glos-montfort","name":"Glos-Montfort","lat":49.27362,"lon":0.68187},"golfech":{"code":"golfech","name":"Golfech","lat":44.1162,"lon":0.85383},"golfe-juan-vallauris":{"code":"golfe-juan-vallauris","name":"Golfe-Juan-Vallauris","lat":43.56615,"lon":7.07317},"goncelin":{"code":"goncelin","name":"Goncelin","lat":45.34203,"lon":5.97387},"gonfaron":{"code":"gonfaron","name":"Gonfaron","lat":43.31692,"lon":6.28166},"gorges":{"code":"gorges","name":"Gorges","lat":47.10779,"lon":-1.31374},"la-gouesni\u00e8re-cancale":{"code":"la-gouesni\u00e8re-cancale","name":"La Gouesni\u00e8re-Cancale","lat":48.61437,"lon":-1.90597},"gourdon":{"code":"gourdon","name":"Gourdon","lat":44.74181,"lon":1.38955},"gourland":{"code":"gourland","name":"Gourland","lat":48.55995,"lon":-3.16609},"gournay-ferri\u00e8res":{"code":"gournay-ferri\u00e8res","name":"Gournay-Ferri\u00e8res","lat":49.48118,"lon":1.73865},"goussainville":{"code":"goussainville","name":"Goussainville","lat":49.02405,"lon":2.4635},"goxwiller":{"code":"goxwiller","name":"Goxwiller","lat":48.4326,"lon":7.47872},"graffenstaden":{"code":"graffenstaden","name":"Graffenstaden","lat":48.53336,"lon":7.69011},"graffenwald":{"code":"graffenwald","name":"Graffenwald","lat":47.7803,"lon":7.22559},"gragnague":{"code":"gragnague","name":"Gragnague","lat":43.6958,"lon":1.56757},"grainville-ymauville":{"code":"grainville-ymauville","name":"Grainville-Ymauville","lat":49.65609,"lon":0.40711},"gramat":{"code":"gramat","name":"Gramat","lat":44.77312,"lon":1.72305},"grand-bourg":{"code":"grand-bourg","name":"Grand-Bourg","lat":48.648,"lon":2.4361},"grand-combe-la-pise":{"code":"grand-combe-la-pise","name":"Grand-Combe-La-Pise","lat":44.20994,"lon":4.03347},"grande-synthe":{"code":"grande-synthe","name":"Grande-Synthe","lat":51.00231,"lon":2.31215},"grand-pont-preuilly":{"code":"grand-pont-preuilly","name":"Grand-Pont-Preuilly","lat":46.63429,"lon":0.35971},"grandvilliers":{"code":"grandvilliers","name":"Grandvilliers","lat":49.65931,"lon":1.93883},"granville":{"code":"granville","name":"Granville","lat":48.83884,"lon":-1.58678},"grasse":{"code":"grasse","name":"Grasse","lat":43.65385,"lon":6.92676},"gravelines":{"code":"gravelines","name":"Gravelines","lat":50.9785,"lon":2.12594},"gravigny-balizy":{"code":"gravigny-balizy","name":"Gravigny-Balizy","lat":48.68623,"lon":2.3176},"grenoble":{"code":"grenoble","name":"Grenoble","lat":45.19149,"lon":5.71422},"grenoble-universit\u00e9-gi\u00e8res":{"code":"grenoble-universit\u00e9-gi\u00e8res","name":"Grenoble-Universit\u00e9-Gi\u00e8res","lat":45.18513,"lon":5.78552},"gresswiller":{"code":"gresswiller","name":"Gresswiller","lat":48.533,"lon":7.42465},"gr\u00e9sy-sur-aix":{"code":"gr\u00e9sy-sur-aix","name":"Gr\u00e9sy-sur-Aix","lat":45.72425,"lon":5.92182},"gr\u00e9sy-sur-is\u00e8re":{"code":"gr\u00e9sy-sur-is\u00e8re","name":"Gr\u00e9sy-sur-Is\u00e8re","lat":45.59447,"lon":6.25866},"gretz-armainvilliers":{"code":"gretz-armainvilliers","name":"Gretz-Armainvilliers","lat":48.74533,"lon":2.72865},"grigny-centre":{"code":"grigny-centre","name":"Grigny-Centre","lat":48.65107,"lon":2.39391},"grigny-val-de-seine":{"code":"grigny-val-de-seine","name":"Grigny-Val-de-Seine","lat":48.66854,"lon":2.39704},"grisolles":{"code":"grisolles","name":"Grisolles","lat":43.82651,"lon":1.3027},"groisy-thorens-la-caille":{"code":"groisy-thorens-la-caille","name":"Groisy-Thorens-la-Caille","lat":46.01053,"lon":6.17494},"groslay":{"code":"groslay","name":"Groslay","lat":48.98474,"lon":2.35434},"gros-noyer-st-prix":{"code":"gros-noyer-st-prix","name":"Gros-Noyer-St-Prix","lat":48.99713,"lon":2.25906},"gudmont":{"code":"gudmont","name":"Gudmont","lat":48.33749,"lon":5.14085},"gu\u00e9rard-celle-sur-morin":{"code":"gu\u00e9rard-celle-sur-morin","name":"Gu\u00e9rard-Celle-sur-Morin","lat":48.81043,"lon":2.95461},"gu\u00e9ret":{"code":"gu\u00e9ret","name":"Gu\u00e9ret","lat":46.17411,"lon":1.87939},"gu\u00e9thary":{"code":"gu\u00e9thary","name":"Gu\u00e9thary","lat":43.42539,"lon":-1.61013},"guichen-bourg-des-comptes":{"code":"guichen-bourg-des-comptes","name":"Guichen-Bourg-des-Comptes","lat":47.93418,"lon":-1.76067},"guignicourt-aisne":{"code":"guignicourt-aisne","name":"Guignicourt (Aisne)","lat":49.43545,"lon":3.96078},"guillerval":{"code":"guillerval","name":"Guillerval","lat":48.37527,"lon":2.06077},"guimiliau":{"code":"guimiliau","name":"Guimiliau","lat":48.485,"lon":-3.99892},"guingamp":{"code":"guingamp","name":"Guingamp","lat":48.55533,"lon":-3.1441},"gujan-mestras":{"code":"gujan-mestras","name":"Gujan-Mestras","lat":44.64051,"lon":-1.06934},"gundershoffen":{"code":"gundershoffen","name":"Gundershoffen","lat":48.90538,"lon":7.65311},"gunsbach-griesbach":{"code":"gunsbach-griesbach","name":"Gunsbach-Griesbach","lat":48.04158,"lon":7.17488},"habsheim":{"code":"habsheim","name":"Habsheim","lat":47.73773,"lon":7.41827},"hachette":{"code":"hachette","name":"Hachette","lat":50.15841,"lon":3.7431},"hagondange":{"code":"hagondange","name":"Hagondange","lat":49.25531,"lon":6.16424},"haguenau":{"code":"haguenau","name":"Haguenau","lat":48.81342,"lon":7.78235},"halsou-larressore":{"code":"halsou-larressore","name":"Halsou-Larressore","lat":43.37823,"lon":-1.42823},"ham-somme":{"code":"ham-somme","name":"Ham (Somme)","lat":49.73953,"lon":3.07052},"ham-en-artois":{"code":"ham-en-artois","name":"Ham-en-Artois","lat":50.59106,"lon":2.46588},"hangest":{"code":"hangest","name":"Hangest","lat":49.9822,"lon":2.06645},"harfleur":{"code":"harfleur","name":"Harfleur","lat":49.51331,"lon":0.19835},"harfleur-halte":{"code":"harfleur-halte","name":"Harfleur-Halte","lat":49.5064,"lon":0.19233},