[{"name":"Abancourt","lat":49.68549,"lon":1.77386},{"name":"Abbeville","lat":50.10197,"lon":1.82423},{"name":"Ablon","lat":48.72511,"lon":2.41896},{"name":"Accolay","lat":47.65912,"lon":3.71302},{"name":"Ach\u00e8res-Grand-Cormier","lat":48.95535,"lon":2.09327},{"name":"Ach\u00e8res-Ville","lat":48.96934,"lon":2.07779},{"name":"Acheux-Franleu","lat":50.08245,"lon":1.65704},{"name":"Achicourt","lat":50.27832,"lon":2.76324},{"name":"Achiet","lat":50.13234,"lon":2.78046},{"name":"Agay","lat":43.43164,"lon":6.85666},{"name":"Agde","lat":43.31754,"lon":3.46575},{"name":"Agen","lat":44.20836,"lon":0.62031},{"name":"Agonac","lat":45.28649,"lon":0.74857},{"name":"Aguilcourt-Variscourt","lat":49.40793,"lon":3.97299},{"name":"Aiguebelette-le-Lac","lat":45.53634,"lon":5.81253},{"name":"Aiguebelle","lat":45.54351,"lon":6.30686},{"name":"Aigueperse","lat":46.01484,"lon":3.19788},{"name":"Aigues-Mortes","lat":43.57112,"lon":4.19112},{"name":"Aigues-Vives","lat":43.72672,"lon":4.19333},{"name":"Aiguillon","lat":44.29873,"lon":0.33517},{"name":"Aillevillers","lat":47.91356,"lon":6.33659},{"name":"Ailly-sur-Noye","lat":49.75458,"lon":2.36392},{"name":"Ailly-sur-Somme","lat":49.92832,"lon":2.20053},{"name":"Aimargues","lat":43.67857,"lon":4.20821},{"name":"Aime-La Plagne","lat":45.55435,"lon":6.6486},{"name":"Aiserey","lat":47.17011,"lon":5.15834},{"name":"Aix-en-Provence","lat":43.52324,"lon":5.44412},{"name":"Aix-en-Provence-TGV","lat":43.45527,"lon":5.31723},{"name":"Aixe-sur-Vienne","lat":45.79601,"lon":1.14686},{"name":"Aix-la-Marsalouse","lat":45.61402,"lon":2.39853},{"name":"Aix-les-Bains-Le Revard","lat":45.68947,"lon":5.90893},{"name":"Alai","lat":45.75174,"lon":4.77153},{"name":"Albens","lat":45.78613,"lon":5.94856},{"name":"Albert","lat":50.0052,"lon":2.64312},{"name":"Albertville","lat":45.6734,"lon":6.38326},{"name":"Albias","lat":44.09198,"lon":1.44489},{"name":"Albi-Madeleine","lat":43.93819,"lon":2.1408},{"name":"Albi-Ville","lat":43.92221,"lon":2.13725},{"name":"Alen\u00e7on","lat":48.43387,"lon":0.09904},{"name":"Al\u00e8s","lat":44.12813,"lon":4.08478},{"name":"Alet-les-Bains","lat":42.99722,"lon":2.25185},{"name":"Allassac","lat":45.25929,"lon":1.47299},{"name":"Allenc","lat":44.54168,"lon":3.66423},{"name":"Alles-sur-Dordogne","lat":44.86527,"lon":0.86939},{"name":"Alleyras","lat":44.91837,"lon":3.67295},{"name":"Alli\u00e8res","lat":46.01673,"lon":4.49499},{"name":"Alouette-France","lat":44.7933,"lon":-0.65986},{"name":"Altkirch","lat":47.6271,"lon":7.23959},{"name":"Amagne-Lucquy","lat":49.5237,"lon":4.4738},{"name":"Ambazac","lat":45.9526,"lon":1.40591},{"name":"Amb\u00e9rieu","lat":45.95395,"lon":5.34246},{"name":"Ambilly","lat":46.19467,"lon":6.22535},{"name":"Amboise","lat":47.42145,"lon":0.98112},{"name":"Ambronay-Priay","lat":46.01159,"lon":5.33816},{"name":"Amiens","lat":49.88993,"lon":2.30982},{"name":"Amifontaine","lat":49.48479,"lon":3.91056},{"name":"Amilly-Ouerray","lat":48.43813,"lon":1.38939},{"name":"Amplepuis","lat":45.97145,"lon":4.32579},{"name":"Ancenis","lat":47.36947,"lon":-1.17759},{"name":"Anchamps","lat":49.93038,"lon":4.67163},{"name":"Anch\u00e9-Voulon","lat":46.34964,"lon":0.25021},{"name":"Ancy-sur-Moselle","lat":49.05727,"lon":6.06276},{"name":"Andelot (Jura)","lat":46.85967,"lon":5.92344},{"name":"Andilly","lat":47.91292,"lon":5.50561},{"name":"Andr\u00e9sy","lat":48.97428,"lon":2.04836},{"name":"Andr\u00e9zieux","lat":45.52168,"lon":4.25526},{"name":"Angers-Ma\u00eetre-\u00c9cole","lat":47.46691,"lon":-0.53255},{"name":"Angers-St-Laud","lat":47.46444,"lon":-0.55694},{"name":"Angerville","lat":48.31141,"lon":2.00373},{"name":"Angoul\u00eame","lat":45.65394,"lon":0.16453},{"name":"Angoulins-sur-Mer","lat":46.1079,"lon":-1.11562},{"name":"Anizy-Pinon","lat":49.49587,"lon":3.44843},{"name":"Annappes","lat":50.62293,"lon":3.14475},{"name":"Annecy","lat":45.90273,"lon":6.12255},{"name":"Annemasse","lat":46.19963,"lon":6.23677},{"name":"Anor","lat":49.98502,"lon":4.09303},{"name":"Anse","lat":45.9395,"lon":4.71974},{"name":"Anstaing","lat":50.60388,"lon":3.19348},{"name":"Anth\u00e9or-Cap-Roux","lat":43.43514,"lon":6.89216},{"name":"Antibes","lat":43.58588,"lon":7.11942},{"name":"Anvin","lat":50.4457,"lon":2.25859},{"name":"Anzeling","lat":49.2624,"lon":6.45953},{"name":"Apach (Moselle)","lat":49.45862,"lon":6.37249},{"name":"Appilly","lat":49.58047,"lon":3.12113},{"name":"Arbanats","lat":44.6744,"lon":-0.39565},{"name":"Arbois","lat":46.91247,"lon":5.76477},{"name":"Arcachon","lat":44.6588,"lon":-1.16535},{"name":"Arc-et-Senans","lat":47.03018,"lon":5.7771},{"name":"Arches","lat":48.12035,"lon":6.52683},{"name":"Arcy-sur-Cure","lat":47.60088,"lon":3.76689},{"name":"Arengosse","lat":44.00673,"lon":-0.80947},{"name":"Argel\u00e8s-sur-Mer","lat":42.54396,"lon":3.02151},{"name":"Argentan","lat":48.73847,"lon":-0.02571},{"name":"Argenteuil","lat":48.94654,"lon":2.25778},{"name":"Argenti\u00e8re","lat":45.98176,"lon":6.92616},{"name":"Argenton-sur-Creuse","lat":46.5926,"lon":1.51851},{"name":"Arlac","lat":44.82747,"lon":-0.62619},{"name":"Arles","lat":43.68246,"lon":4.63284},{"name":"Arleux","lat":50.28628,"lon":3.12135},{"name":"Armenti\u00e8res","lat":50.68047,"lon":2.8775},{"name":"Arnage","lat":47.92777,"lon":0.19015},{"name":"Arn\u00e8ke","lat":50.83174,"lon":2.40826},{"name":"Arpajon (Essonne)","lat":48.58614,"lon":2.24049},{"name":"Arras","lat":50.28671,"lon":2.7819},{"name":"Arrou","lat":48.10051,"lon":1.1292},{"name":"Ars-sur-Moselle","lat":49.07445,"lon":6.07848},{"name":"Artenay (Loiret)","lat":48.08095,"lon":1.88303},{"name":"Artix","lat":43.39205,"lon":-0.57055},{"name":"Arvant","lat":45.36615,"lon":3.31097},{"name":"Ascq","lat":50.62197,"lon":3.15902},{"name":"Asni\u00e8res-sur-Seine","lat":48.9053,"lon":2.28378},{"name":"Aspres-sur-Bu\u00ebch","lat":44.51904,"lon":5.7547},{"name":"Assat","lat":43.25464,"lon":-0.29521},{"name":"Assier","lat":44.67367,"lon":1.87073},{"name":"Athis-Mons","lat":48.71235,"lon":2.4031},{"name":"Aubagne","lat":43.29607,"lon":5.56632},{"name":"Aubazine-St-Hilaire","lat":45.18177,"lon":1.64173},{"name":"Aubergenville-\u00c9lisabethville","lat":48.97187,"lon":1.84768},{"name":"Aubervilliers-La Courneuve","lat":48.9241,"lon":2.38554},{"name":"Aubiat","lat":45.98402,"lon":3.16031},{"name":"Aubie-St-Antoine","lat":45.01507,"lon":-0.41969},{"name":"Aubiet","lat":43.65016,"lon":0.7892},{"name":"Aubign\u00e9-Racan","lat":47.68669,"lon":0.26655},{"name":"Aubigny-au-Bac","lat":50.26847,"lon":3.15854},{"name":"Aubigny-en-Artois","lat":50.35307,"lon":2.59286},{"name":"Aubin","lat":44.52729,"lon":2.23902},{"name":"Aubin-St-Vaast","lat":50.3941,"lon":1.97105},{"name":"Aubou\u00e9","lat":49.21631,"lon":5.97156},{"name":"Aubrives","lat":50.1036,"lon":4.76085},{"name":"Aubusson","lat":45.96092,"lon":2.1605},{"name":"Auch","lat":43.64739,"lon":0.59707},{"name":"Auchy-l\u00e8s-Hesdin","lat":50.39213,"lon":2.08842},{"name":"Audrieu","lat":49.2161,"lon":-0.59646},{"name":"Audruicq","lat":50.87535,"lon":2.07735},{"name":"Audun-le-Roman","lat":49.36646,"lon":5.89138},{"name":"Audun-le-Tiche","lat":49.47808,"lon":5.9576},{"name":"Auffay","lat":49.71599,"lon":1.0982},{"name":"Augy-Vaux","lat":47.76632,"lon":3.611},{"name":"Aulnay-sous-Bois","lat":48.93212,"lon":2.49454},{"name":"Aulnoye-Aymeries","lat":50.19721,"lon":3.84375},{"name":"Aumale","lat":49.76476,"lon":1.75613},{"name":"Aumont-Aubrac","lat":44.71675,"lon":3.28521},{"name":"Auneau","lat":48.44545,"lon":1.77976},{"name":"Auray","lat":47.68012,"lon":-2.99919},{"name":"Aurec","lat":45.37116,"lon":4.19833},{"name":"Aurillac","lat":44.92075,"lon":2.43563},{"name":"Auterive","lat":43.34884,"lon":1.46863},{"name":"Autun","lat":46.95526,"lon":4.29297},{"name":"Auvers-sur-Oise","lat":49.07092,"lon":2.1765},{"name":"Auxerre-St-Gervais","lat":47.79753,"lon":3.58552},{"name":"Auxonne","lat":47.19221,"lon":5.37765},{"name":"Avallon","lat":47.49585,"lon":3.91264},{"name":"Avenay","lat":49.06454,"lon":4.04328},{"name":"Avenue-Foch","lat":48.8714,"lon":2.27568},{"name":"Avenue-Henri-Martin","lat":48.86494,"lon":2.27211},{"name":"Avesnelles","lat":50.1198,"lon":3.94605},{"name":"Avesnes","lat":50.12654,"lon":3.93374},{"name":"Avignon","lat":43.94117,"lon":4.80633},{"name":"Avignonet","lat":43.3639,"lon":1.78777},{"name":"Avignon-TGV","lat":43.92194,"lon":4.78581},{"name":"Avion","lat":50.40649,"lon":2.83333},{"name":"Avord","lat":47.03485,"lon":2.65234},{"name":"Avoudrey","lat":47.12984,"lon":6.43461},{"name":"Avenue du Pdt Kennedy","lat":48.85357,"lon":2.27964},{"name":"Avranches","lat":48.69042,"lon":-1.36997},{"name":"Avrechy","lat":49.44502,"lon":2.41799},{"name":"Ax-les-Thermes","lat":42.72503,"lon":1.83366},{"name":"Ay","lat":49.04879,"lon":4.00166},{"name":"Aytr\u00e9-Plage","lat":46.12754,"lon":-1.12829},{"name":"Azay-le-Rideau","lat":47.26701,"lon":0.44792},{"name":"Azay-sur-Cher","lat":47.36519,"lon":0.85946},{"name":"Azerailles","lat":48.491,"lon":6.69674},{"name":"Baccarat","lat":48.45226,"lon":6.74405},{"name":"Bagnac","lat":44.66516,"lon":2.16074},{"name":"Bagneaux-sur-Loing","lat":48.23047,"lon":2.7034},{"name":"Bagnols-Chadenet","lat":44.52832,"lon":3.62815},{"name":"Baillargues","lat":43.6531,"lon":4.00667},{"name":"Bailleau-le-Pin","lat":48.36675,"lon":1.32472},{"name":"Bailleul (Nord)","lat":50.729,"lon":2.73406},{"name":"Bailleul-Sire-Berthoult","lat":50.33476,"lon":2.84097},{"name":"Bains-les-Bains","lat":47.98122,"lon":6.29519},{"name":"Bainville","lat":48.586,"lon":6.09954},{"name":"Baisieux","lat":50.6186,"lon":3.23522},{"name":"Balagny-St-\u00c9pin","lat":49.29317,"lon":2.34536},{"name":"Balbigny","lat":45.81757,"lon":4.18783},{"name":"Ballan","lat":47.33676,"lon":0.61809},{"name":"Ballancourt","lat":48.53234,"lon":2.37137},{"name":"Ballersdorf","lat":47.61985,"lon":7.15515},{"name":"Balsi\u00e8ges-Bourg","lat":44.48228,"lon":3.45686},{"name":"Banassac-La Canourgue","lat":44.44598,"lon":3.19705},{"name":"Bandol","lat":43.14037,"lon":5.74995},{"name":"Bannalec","lat":47.92651,"lon":-3.70673},{"name":"Banyuls-sur-Mer","lat":42.48262,"lon":3.12441},{"name":"Baraqueville-Carcenac-Peyral\u00e8s","lat":44.27024,"lon":2.42726},{"name":"Barentin","lat":49.55017,"lon":0.95331},{"name":"Barenton-Bugny","lat":49.63068,"lon":3.6556},{"name":"Barjac","lat":44.49936,"lon":3.41057},{"name":"Bar-le-Duc","lat":48.77317,"lon":5.16781},{"name":"Baroncourt","lat":49.28449,"lon":5.6997},{"name":"Barr","lat":48.40305,"lon":7.45691},{"name":"Barsac","lat":44.60414,"lon":-0.32061},{"name":"Barsanges","lat":45.566,"lon":2.01882},{"name":"Bar-sur-Aube","lat":48.23852,"lon":4.70688},{"name":"Bartenheim","lat":47.63478,"lon":7.48767},{"name":"Bas-\u00c9vette","lat":47.68086,"lon":6.80692},{"name":"Bas-Monistrol","lat":45.29797,"lon":4.13958},{"name":"Basse-Ham","lat":49.38053,"lon":6.23495},{"name":"Bassens-Ville","lat":44.90131,"lon":-0.52239},{"name":"Batz-sur-Mer","lat":47.28091,"lon":-2.47941},{"name":"Baule","lat":47.81149,"lon":1.66784},{"name":"Baume-les-Dames","lat":47.35405,"lon":6.35912},{"name":"Bauvin-Provin","lat":50.51163,"lon":2.90502},{"name":"Bayard","lat":48.55152,"lon":5.07628},{"name":"Bayeux","lat":49.26945,"lon":-0.69731},{"name":"Bayon","lat":48.46765,"lon":6.32219},{"name":"Bayonne","lat":43.49702,"lon":-1.47019},{"name":"Bazancourt","lat":49.36113,"lon":4.17416},{"name":"Bazi\u00e8ge","lat":43.45318,"lon":1.62123},{"name":"Bazoches","lat":49.30523,"lon":3.61422},{"name":"B\u00e9ard","lat":46.86504,"lon":3.31787},{"name":"Beaucaire","lat":43.80215,"lon":4.64741},{"name":"Beaugency","lat":47.77825,"lon":1.62571},{"name":"Beaulieu-sur-Mer","lat":43.70679,"lon":7.33179},{"name":"Beau-Marais","lat":50.94553,"lon":1.8998},{"name":"Beaumont-le-Roger","lat":49.07442,"lon":0.77228},{"name":"Beaune","lat":47.02303,"lon":4.84873},{"name":"Beaurainville","lat":50.42263,"lon":1.89542},{"name":"Beautiran","lat":44.70139,"lon":-0.4509},{"name":"Beauvais","lat":49.42623,"lon":2.08794},{"name":"Beauvoir-sur-Niort","lat":46.1767,"lon":-0.46915},{"name":"Beauvoisin","lat":43.72494,"lon":4.32205},{"name":"Beauzac","lat":45.23567,"lon":4.09426},{"name":"B\u00e9con-les-Bruy\u00e8res","lat":48.90583,"lon":2.26831},{"name":"B\u00e9darieux","lat":43.60507,"lon":3.14761},{"name":"B\u00e9darrides","lat":44.04274,"lon":4.89372},{"name":"Bedous","lat":43.00056,"lon":-0.60111},{"name":"B\u00e8gles","lat":44.79978,"lon":-0.55533},{"name":"Beillant","lat":45.70096,"lon":-0.52729},{"name":"Reims-Beine-Farman","lat":49.24397,"lon":4.07097},{"name":"Beinheim","lat":48.87411,"lon":8.07885},{"name":"Belfort","lat":47.63251,"lon":6.85414},{"name":"Bellac","lat":46.12556,"lon":1.04633},{"name":"Bellegarde (Ain)","lat":46.11006,"lon":5.8236},{"name":"Belle-Isle-B\u00e9gard","lat":48.59335,"lon":-3.3231},{"name":"Bellenaves","lat":46.19954,"lon":3.0666},{"name":"Belleville","lat":48.81945,"lon":6.10171},{"name":"Belleville-sur-Sa\u00f4ne","lat":46.11175,"lon":4.72859},{"name":"Belleville-Vend\u00e9e","lat":46.78826,"lon":-1.43463},{"name":"Bellevue","lat":48.81877,"lon":2.2301},{"name":"Bellignat","lat":46.23879,"lon":5.63017},{"name":"Belloy-St-Martin","lat":49.09833,"lon":2.36124},{"name":"Belv\u00e8s","lat":44.7773,"lon":1.0119},{"name":"Belvezet","lat":44.56186,"lon":3.75189},{"name":"Belz-Ploemel","lat":47.6525,"lon":-3.07222},{"name":"B\u00e9na-Fan\u00e8s","lat":42.45797,"lon":1.91803},{"name":"B\u00e9nesse-Maremne","lat":43.62761,"lon":-1.37029},{"name":"B\u00e9nestroff","lat":48.90622,"lon":6.75063},{"name":"Benfeld","lat":48.3738,"lon":7.58438},{"name":"Bengy","lat":47.00009,"lon":2.7497},{"name":"B\u00e9ning","lat":49.13814,"lon":6.82789},{"name":"Bergerac","lat":44.85728,"lon":0.48877},{"name":"Bergues","lat":50.96846,"lon":2.42577},{"name":"Berguette-Isbergues","lat":50.61495,"lon":2.46296},{"name":"Berlaimont","lat":50.19768,"lon":3.81062},{"name":"Bernay","lat":49.08699,"lon":0.59573},{"name":"Berre","lat":43.50088,"lon":5.17891},{"name":"Bersac","lat":46.0837,"lon":1.43203},{"name":"Berthelming","lat":48.81082,"lon":7.00654},{"name":"Bertrichamps","lat":48.42849,"lon":6.79128},{"name":"Bertry","lat":50.09099,"lon":3.44899},{"name":"Besan\u00e7on-Mouill\u00e8re","lat":47.24093,"lon":6.03406},{"name":"Besan\u00e7on-Viotte","lat":47.24721,"lon":6.02158},{"name":"Besl\u00e9","lat":47.6992,"lon":-1.87028},{"name":"Bessancourt","lat":49.03546,"lon":2.21027},{"name":"Bessay","lat":46.44293,"lon":3.36058},{"name":"Bess\u00e8ges","lat":44.2968,"lon":4.09279},{"name":"B\u00e9taille","lat":44.94254,"lon":1.73453},{"name":"B\u00e9thune","lat":50.52072,"lon":2.64167},{"name":"Betton","lat":48.18175,"lon":-1.63413},{"name":"Beuvrages","lat":50.3896,"lon":3.50662},{"name":"Beuvry (Pas-de-Calais)","lat":50.53582,"lon":2.6917},{"name":"Beynes","lat":48.85965,"lon":1.87575},{"name":"Beynost","lat":45.83385,"lon":5.0068},{"name":"B\u00e9ziers","lat":43.33627,"lon":3.21899},{"name":"Biache-St-Vaast","lat":50.31664,"lon":2.942},{"name":"Biarritz","lat":43.45922,"lon":-1.54549},{"name":"Biblioth\u00e8que-Fran\u00e7ois-Mitterrand","lat":48.82874,"lon":2.37794},{"name":"Bi\u00e8vres","lat":48.75124,"lon":2.21556},{"name":"Biffontaine","lat":48.20581,"lon":6.80674},{"name":"Bigny","lat":46.80104,"lon":2.36941},{"name":"Billy-Montigny","lat":50.41531,"lon":2.91167},{"name":"Biot","lat":43.61139,"lon":7.12667},{"name":"Bischheim","lat":48.61124,"lon":7.74123},{"name":"Bischoffsheim","lat":48.4868,"lon":7.49781},{"name":"Bischwiller (Bas-Rhin)","lat":48.76541,"lon":7.85116},{"name":"Bitche","lat":49.04843,"lon":7.43258},{"name":"Bitschwiller (Haut-Rhin)","lat":47.82815,"lon":7.07818},{"name":"Blainville-Damelevi\u00e8res","lat":48.56405,"lon":6.38827},{"name":"Blaisy-Bas","lat":47.37324,"lon":4.74138},{"name":"Blangy-sur-Bresle","lat":49.93302,"lon":1.62482},{"name":"Blangy-sur-Ternoise","lat":50.42336,"lon":2.16944},{"name":"Blanquefort","lat":44.91761,"lon":-0.62355},{"name":"Blanzy","lat":46.70211,"lon":4.40073},{"name":"Blanzy-Canal","lat":46.69399,"lon":4.39221},{"name":"Blaye","lat":45.12794,"lon":-0.66351},{"name":"Bl\u00e9r\u00e9-la-Croix","lat":47.3381,"lon":0.98632},{"name":"Blesme-Haussignemont","lat":48.72154,"lon":4.75259},{"name":"Blois","lat":47.58555,"lon":1.32353},{"name":"Blonville-sur-Mer-Benerville","lat":49.33123,"lon":0.03536},{"name":"Bo\u00ebn","lat":45.7416,"lon":4.00444},{"name":"Bogny-sur-Meuse","lat":49.85845,"lon":4.76338},{"name":"Bohain","lat":49.98859,"lon":3.44263},{"name":"Boigneville","lat":48.34161,"lon":2.37879},{"name":"Bois-Colombes","lat":48.91373,"lon":2.27191},{"name":"Bois-d'Oingt-L\u00e9gny","lat":45.90649,"lon":4.57517},{"name":"Bois-le-Roi","lat":48.47556,"lon":2.69199},{"name":"Boisleux","lat":50.21064,"lon":2.7711},{"name":"Boisseaux","lat":48.25647,"lon":1.97296},{"name":"Boisset (Cantal)","lat":44.78696,"lon":2.25032},{"name":"Boissise-le-Roi","lat":48.52942,"lon":2.57305},{"name":"Boissy-l'Aillerie","lat":49.07593,"lon":2.02452},{"name":"Bolbec-Nointot","lat":49.5917,"lon":0.48492},{"name":"Boll\u00e8ne-la-Croisi\u00e8re","lat":44.27151,"lon":4.7081},{"name":"Bollwiller","lat":47.85671,"lon":7.26731},{"name":"Bologne","lat":48.19858,"lon":5.13426},{"name":"Bolqu\u00e8re-Eyne","lat":42.49778,"lon":2.09188},{"name":"Bondy","lat":48.89385,"lon":2.47876},{"name":"Bonnard-Bassou","lat":47.92703,"lon":3.5403},{"name":"Bonnemain","lat":48.47709,"lon":-1.76586},{"name":"Bonneval","lat":48.1863,"lon":1.38613},{"name":"Bonneville","lat":46.07785,"lon":6.41691},{"name":"Bonni\u00e8res","lat":49.03875,"lon":1.58131},{"name":"Bons-en-Chablais","lat":46.27,"lon":6.36642},{"name":"Bonson","lat":45.52246,"lon":4.21629},{"name":"Boran-sur-Oise","lat":49.1673,"lon":2.36253},{"name":"Bordeaux-St-Jean","lat":44.82582,"lon":-0.55601},{"name":"Ravezies","lat":44.86664,"lon":-0.57741},{"name":"Bords","lat":45.8947,"lon":-0.79884},{"name":"Bornel-Belle-\u00c9glise","lat":49.1945,"lon":2.20688},{"name":"Bouaye","lat":47.13778,"lon":-1.67982},{"name":"Bouchain","lat":50.27826,"lon":3.33197},{"name":"Boucoiran","lat":43.99236,"lon":4.18765},{"name":"Bouffemont-Moisselles","lat":49.04499,"lon":2.32323},{"name":"Bougival","lat":48.85402,"lon":2.13205},{"name":"Boulainvilliers","lat":48.85716,"lon":2.27484},{"name":"Boulevard-Victor","lat":48.84105,"lon":2.27185},{"name":"Boulogne-Tintelleries","lat":50.72711,"lon":1.60961},{"name":"Boulogne-Ville","lat":50.71561,"lon":1.61033},{"name":"Boulouris-sur-Mer","lat":43.41633,"lon":6.80834},{"name":"Bouray","lat":48.53325,"lon":2.29031},{"name":"Bourbourg","lat":50.95274,"lon":2.19503},{"name":"Bourg-Bruche","lat":48.36032,"lon":7.13714},{"name":"Bourg-en-Bresse","lat":46.20007,"lon":5.21513},{"name":"Bourges","lat":47.09437,"lon":2.39418},{"name":"Bourg-Lastic-Messeix","lat":45.62753,"lon":2.56},{"name":"Bourg-Madame","lat":42.43003,"lon":1.9536},{"name":"Bourgneuf-en-Retz","lat":47.04687,"lon":-1.95494},{"name":"Bourgoin-Jallieu","lat":45.58373,"lon":5.27401},{"name":"Bourg-St-Maurice","lat":45.61953,"lon":6.77146},{"name":"Bourgtheroulde-Thuit-H\u00e9bert","lat":49.3175,"lon":0.83967},{"name":"Bournezeau","lat":46.65148,"lon":-1.17846},{"name":"Bourron-Marlotte-Grez","lat":48.33267,"lon":2.69346},{"name":"Bourth","lat":48.76543,"lon":0.80594},{"name":"Boussay-La Bruffi\u00e8re","lat":47.05061,"lon":-1.18351},{"name":"Boussens","lat":43.17964,"lon":0.97219},{"name":"Boussy-St-Antoine","lat":48.68098,"lon":2.53301},{"name":"Bouth\u00e9on","lat":45.52434,"lon":4.27714},{"name":"Boutigny","lat":48.43491,"lon":2.37655},{"name":"Bouvines","lat":50.57313,"lon":3.20232},{"name":"Bouy","lat":49.09081,"lon":4.3536},{"name":"Bouzonville","lat":49.28924,"lon":6.53253},{"name":"Boves","lat":49.84727,"lon":2.39829},{"name":"Bram","lat":43.24383,"lon":2.11982},{"name":"Brand\u00e9rion","lat":47.78232,"lon":-3.19509},{"name":"Brassac-les-Mines-Ste-Florine","lat":45.41448,"lon":3.33122},{"name":"Brax-L\u00e9guevin","lat":43.6151,"lon":1.23607},{"name":"Brazey-en-Plaine","lat":47.13176,"lon":5.21183},{"name":"Br\u00e9aut\u00e9-Beuzeville","lat":49.60357,"lon":0.41684},{"name":"Brebi\u00e8res-Sud","lat":50.33631,"lon":3.01355},{"name":"Breil-sur-Roya","lat":43.94432,"lon":7.51649},{"name":"Breitenbach (Haut-Rhin)","lat":48.02883,"lon":7.10427},{"name":"Br\u00e9lidy-Plou\u00ebc","lat":48.66907,"lon":-3.1962},{"name":"Bressuire","lat":46.83717,"lon":-0.49648},{"name":"Brest","lat":48.38808,"lon":-4.47892},{"name":"Breteil","lat":48.14037,"lon":-1.89764},{"name":"Bretenoux-Biars","lat":44.92756,"lon":1.8442},{"name":"Breteuil-Embranchement","lat":49.62665,"lon":2.38411},{"name":"Br\u00e9tigny","lat":48.60624,"lon":2.30193},{"name":"Br\u00e9tigny-Norges","lat":47.38963,"lon":5.10976},{"name":"Bretoncelles","lat":48.43293,"lon":0.89317},{"name":"Bretteville-Norrey","lat":49.20317,"lon":-0.51211},{"name":"Breuillet-Bruy\u00e8res-le-Ch\u00e2tel","lat":48.5778,"lon":2.19283},{"name":"Breuillet-Village","lat":48.56481,"lon":2.17132},{"name":"Breuil-Romain","lat":49.30853,"lon":3.76604},{"name":"Br\u00e9val","lat":48.94413,"lon":1.54302},{"name":"Brian\u00e7on","lat":44.88961,"lon":6.63263},{"name":"Briare","lat":47.6465,"lon":2.7337},{"name":"Brignac","lat":45.86288,"lon":1.44175},{"name":"Brignais","lat":45.67354,"lon":4.76352},{"name":"Brignoud","lat":45.26259,"lon":5.90134},{"name":"Brimeux","lat":50.44687,"lon":1.83174},{"name":"Brion-Laizy","lat":46.90852,"lon":4.20679},{"name":"Brion-Montr\u00e9al-la-Cluse","lat":46.17598,"lon":5.55886},{"name":"Brionne (Eure)","lat":49.19635,"lon":0.71157},{"name":"Brion-pr\u00e8s-Thouet","lat":47.04872,"lon":-0.1849},{"name":"Brioude","lat":45.30069,"lon":3.37895},{"name":"Briouze","lat":48.702,"lon":-0.36744},{"name":"Brive-la-Gaillarde","lat":45.15262,"lon":1.52814},{"name":"Broons","lat":48.33336,"lon":-2.23642},{"name":"Brou","lat":48.21712,"lon":1.1615},{"name":"Broye","lat":46.8623,"lon":4.29499},{"name":"Bruges","lat":44.886,"lon":-0.60894},{"name":"Brumath","lat":48.73218,"lon":7.70038},{"name":"Brun\u00e9mont","lat":50.27818,"lon":3.14636},{"name":"Brunoy","lat":48.69947,"lon":2.50644},{"name":"Brunstatt","lat":47.71979,"lon":7.31414},{"name":"Bruy\u00e8res (Vosges)","lat":48.20493,"lon":6.71888},{"name":"Bruy\u00e8res-sur-Oise","lat":49.1552,"lon":2.32707},{"name":"Bruz","lat":48.02852,"lon":-1.75199},{"name":"Bueil","lat":48.92556,"lon":1.44317},{"name":"Bugeat","lat":45.60047,"lon":1.92454},{"name":"Buire-sur-l'Ancre","lat":49.9651,"lon":2.59907},{"name":"Bully-Grenay","lat":50.44898,"lon":2.73222},{"name":"Buno-Gironville","lat":48.37041,"lon":2.38656},{"name":"Busigny","lat":50.03947,"lon":3.44589},{"name":"Bussac","lat":45.21156,"lon":-0.36804},{"name":"Busseau-sur-Creuse","lat":46.12309,"lon":2.02311},{"name":"Bussi\u00e8re-Galant","lat":45.60759,"lon":1.02607},{"name":"Buzy-en-B\u00e9arn","lat":43.14831,"lon":-0.45604},{"name":"Byans","lat":47.11827,"lon":5.85219},{"name":"Cadaujac","lat":44.75223,"lon":-0.53791},{"name":"Caen","lat":49.17655,"lon":-0.34826},{"name":"Caffiers","lat":50.85057,"lon":1.81133},{"name":"Cagnes-sur-Mer","lat":43.65715,"lon":7.14802},{"name":"Cahors","lat":44.44916,"lon":1.43325},{"name":"Calais-Fr\u00e9thun","lat":50.90259,"lon":1.81129},{"name":"Calais-Ville","lat":50.95343,"lon":1.85139},{"name":"Callac","lat":48.4069,"lon":-3.41866},{"name":"Calonne-Ricouart","lat":50.48307,"lon":2.48183},{"name":"Cambo-les-Bains","lat":43.36523,"lon":-1.39616},{"name":"Cambrai","lat":50.177,"lon":3.24129},{"name":"Campagnac-St-Geniez","lat":44.42213,"lon":3.0637},{"name":"Campagne","lat":42.91625,"lon":2.20427},{"name":"Cannes","lat":43.55416,"lon":7.01862},{"name":"Cannes-la-Bocca","lat":43.54912,"lon":6.98573},{"name":"Cantin","lat":50.31243,"lon":3.12169},{"name":"Cap-d'Ail","lat":43.72072,"lon":7.39364},{"name":"Capdenac","lat":44.57896,"lon":2.07709},{"name":"Cap-Martin-Roquebrune","lat":43.76045,"lon":7.45723},{"name":"Capvern","lat":43.10358,"lon":0.32954},{"name":"Carantilly-Marigny","lat":49.06779,"lon":-1.24618},{"name":"Carbonne","lat":43.29838,"lon":1.21241},{"name":"Carcassonne","lat":43.21817,"lon":2.35243},{"name":"Carentan","lat":49.30181,"lon":-1.24209},{"name":"Carhaix","lat":48.27598,"lon":-3.56395},{"name":"Carignan","lat":49.62852,"lon":5.16847},{"name":"Carmaux","lat":44.04861,"lon":2.15199},{"name":"Carno\u00ebt-Locarn","lat":48.3403,"lon":-3.4907},{"name":"Carnol\u00e8s","lat":43.76124,"lon":7.4809},{"name":"Carnoules","lat":43.29746,"lon":6.18703},{"name":"Carry-le-Rouet","lat":43.33684,"lon":5.15412},{"name":"Casino-Lacroix-Laval","lat":45.78843,"lon":4.72981},{"name":"Cassel","lat":50.78776,"lon":2.46003},{"name":"Cassis","lat":43.23399,"lon":5.55316},{"name":"Castelnaudary","lat":43.31206,"lon":1.9501},{"name":"Castelnau-d'Estr\u00e9tefonds","lat":43.78616,"lon":1.34155},{"name":"Castelsarrasin","lat":44.04022,"lon":1.1145},{"name":"Castillon","lat":44.85716,"lon":-0.04069},{"name":"Castres (Tarn)","lat":43.59916,"lon":2.23122},{"name":"Catteni\u00e8res","lat":50.12811,"lon":3.33372},{"name":"Caud\u00e9ran-M\u00e9rignac","lat":44.84295,"lon":-0.62753},{"name":"Caudrot","lat":44.58045,"lon":-0.14469},{"name":"Caudry","lat":50.11138,"lon":3.40963},{"name":"Caulnes","lat":48.28436,"lon":-2.1558},{"name":"Caussade (Tarn-et-Garonne)","lat":44.16231,"lon":1.53346},{"name":"Cavaillon","lat":43.8347,"lon":5.04374},{"name":"Cavignac","lat":45.10418,"lon":-0.38137},{"name":"Caz\u00e8res-sur-Garonne","lat":43.2129,"lon":1.08278},{"name":"Ceilhes-Roqueredonde","lat":43.81065,"lon":3.15888},{"name":"Ceintrey","lat":48.5247,"lon":6.15727},{"name":"Cenon","lat":44.85599,"lon":-0.53356},{"name":"Cerb\u00e8re","lat":42.44277,"lon":3.16553},{"name":"Cercottes","lat":47.98716,"lon":1.8847},{"name":"Cercy-la-Tour","lat":46.85781,"lon":3.645},{"name":"C\u00e9rences","lat":48.92013,"lon":-1.42743},{"name":"Cergy-le-Haut","lat":49.04766,"lon":2.01078},{"name":"Cergy-Pr\u00e9fecture","lat":49.03665,"lon":2.07965},{"name":"Cergy-St-Christophe","lat":49.04985,"lon":2.03348},{"name":"Cerizay","lat":46.81732,"lon":-0.66748},{"name":"Cernay (Haut-Rhin)","lat":47.80171,"lon":7.17394},{"name":"Cernay (Val-d'Oise)","lat":48.98528,"lon":2.25702},{"name":"C\u00e9rons","lat":44.63298,"lon":-0.34112},{"name":"Cessieu","lat":45.56102,"lon":5.37544},{"name":"Cesson","lat":48.56587,"lon":2.59417},{"name":"Cesson-S\u00e9vign\u00e9-Halte","lat":48.11237,"lon":-1.6025},{"name":"Ceyz\u00e9riat","lat":46.18346,"lon":5.32582},{"name":"C\u00e9zy","lat":47.98559,"lon":3.33814},{"name":"Chabanais","lat":45.87256,"lon":0.71477},{"name":"Chabenet","lat":46.62656,"lon":1.50786},{"name":"Chabons","lat":45.43778,"lon":5.4284},{"name":"Chabris","lat":47.25666,"lon":1.64684},{"name":"Chagny","lat":46.90735,"lon":4.74918},{"name":"Chailly-Boissy-Le Ch\u00e2tel","lat":48.81428,"lon":3.15191},{"name":"Chaingy-Fourneaux-Plage","lat":47.87749,"lon":1.78368},{"name":"Chalais","lat":45.27068,"lon":0.04339},{"name":"Challans","lat":46.84381,"lon":-1.87155},{"name":"Chalonnes","lat":47.34291,"lon":-0.74358},{"name":"Ch\u00e2lons-en-Champagne","lat":48.95547,"lon":4.34896},{"name":"Chalon-sur-Sa\u00f4ne","lat":46.78103,"lon":4.84316},{"name":"Chamali\u00e8res-sur-Loire","lat":45.20556,"lon":3.99211},{"name":"Chamarande","lat":48.51466,"lon":2.21607},{"name":"Champbenoist-Poigny","lat":48.54574,"lon":3.28692},{"name":"Chamb\u00e9ry-Challes-les-Eaux","lat":45.57093,"lon":5.92054},{"name":"Chamblet","lat":46.31381,"lon":2.7015},{"name":"Chambly","lat":49.16357,"lon":2.24037},{"name":"Chamborigaud","lat":44.30069,"lon":3.97937},{"name":"Chambourg","lat":47.18165,"lon":0.96543},{"name":"Chamelet","lat":45.98207,"lon":4.50719},{"name":"Chamonix-Mont-Blanc","lat":45.92256,"lon":6.87409},{"name":"Chamousset","lat":45.5576,"lon":6.20567},{"name":"Champagn\u00e9","lat":48.01954,"lon":0.33456},{"name":"Champagne-sur-Oise","lat":49.13574,"lon":2.24208},{"name":"Champagne-sur-Seine","lat":48.40634,"lon":2.79977},{"name":"Champagney","lat":47.70315,"lon":6.70123},{"name":"Champagnole","lat":46.74939,"lon":5.91016},{"name":"Champ-de-Courses-d'Enghien","lat":48.97974,"lon":2.29175},{"name":"Champigneulles","lat":48.73507,"lon":6.16936},{"name":"Champigny-sur-Yonne","lat":48.32417,"lon":3.1309},{"name":"Champ-de-Mars-Tour-Eiffel","lat":48.85869,"lon":2.29204},{"name":"Champs-St-Bris","lat":47.73829,"lon":3.60355},{"name":"Champtoc\u00e9-sur-Loire","lat":47.41021,"lon":-0.86789},{"name":"Chanac","lat":44.47338,"lon":3.34496},{"name":"Changis-St-Jean","lat":48.9593,"lon":3.02632},{"name":"Chanteloup-les-Vignes","lat":48.97029,"lon":2.02723},{"name":"Chantenay","lat":47.19671,"lon":-1.59596},{"name":"Chantenay-St-Imbert","lat":46.7278,"lon":3.17237},{"name":"Chantilly-Gouvieux","lat":49.18698,"lon":2.45957},{"name":"Chantonnay","lat":46.68997,"lon":-1.05461},{"name":"Chapeauroux","lat":44.83787,"lon":3.74165},{"name":"Chaponost","lat":45.69849,"lon":4.76451},{"name":"Chaponval","lat":49.06881,"lon":2.14056},{"name":"Charbonni\u00e8res-les-Bains","lat":45.78226,"lon":4.73574},{"name":"Charleville-M\u00e9zi\u00e8res","lat":49.76788,"lon":4.72513},{"name":"Charmes (Vosges)","lat":48.37855,"lon":6.30193},{"name":"Chars","lat":49.16299,"lon":1.9367},{"name":"Chartres","lat":48.44881,"lon":1.48134},{"name":"Chartrettes","lat":48.4869,"lon":2.69597},{"name":"Chasseneuil (Vienne)","lat":46.6518,"lon":0.37282},{"name":"Chasseneuil-sur-Bonnieure","lat":45.82345,"lon":0.45207},{"name":"Chasserad\u00e8s","lat":44.55397,"lon":3.83969},{"name":"Chasse-sur-Rh\u00f4ne","lat":45.58256,"lon":4.7955},{"name":"Ch\u00e2teau-Arnoux-St-Auban","lat":44.06082,"lon":5.99713},{"name":"Ch\u00e2teaubourg","lat":48.10616,"lon":-1.40529},{"name":"Ch\u00e2teaubriant","lat":47.71247,"lon":-1.37269},{"name":"Ch\u00e2teau-du-Loir","lat":47.68305,"lon":0.41582},{"name":"Ch\u00e2teaudun","lat":48.07353,"lon":1.33843},{"name":"Ch\u00e2teau-Gaillard","lat":48.14038,"lon":1.91204},{"name":"Ch\u00e2teau-l'\u00c9v\u00eaque","lat":45.24471,"lon":0.68845},{"name":"Ch\u00e2teaulin-Embranchement","lat":48.20107,"lon":-4.09485},{"name":"Ch\u00e2teauneuf-Bujaleuf","lat":45.76056,"lon":1.64525},{"name":"Ch\u00e2teauneuf-sur-Charente","lat":45.59998,"lon":-0.0502},{"name":"Ch\u00e2teauneuf-sur-Cher","lat":46.85577,"lon":2.31164},{"name":"Ch\u00e2teau-Renault","lat":47.58829,"lon":0.9016},{"name":"Ch\u00e2teauroux","lat":44.60968,"lon":6.53017},{"name":"Ch\u00e2teau-Thierry","lat":49.03791,"lon":3.40941},{"name":"Ch\u00e2telaillon","lat":46.07857,"lon":-1.0912},{"name":"Ch\u00e2telaudren-Plouagat","lat":48.5332,"lon":-2.97415},{"name":"Ch\u00e2tel-Censoir","lat":47.53766,"lon":3.63508},{"name":"Ch\u00e2tellerault","lat":46.81867,"lon":0.54959},{"name":"Ch\u00e2tel-Nomexy","lat":48.30755,"lon":6.38718},{"name":"Ch\u00e2tillon-d'Azergues","lat":45.87504,"lon":4.64527},{"name":"Chauffailles","lat":46.20738,"lon":4.34571},{"name":"Chaugey","lat":47.08754,"lon":5.25505},{"name":"Chaulnes","lat":49.80709,"lon":2.80177},{"name":"Chaumont","lat":48.10944,"lon":5.13443},{"name":"Chaumont-en-Vexin","lat":49.26141,"lon":1.87173},{"name":"Chauny","lat":49.61047,"lon":3.22266},{"name":"Chavagnes-les-Redoux","lat":46.72597,"lon":-0.93116},{"name":"Chaville-Rive-Droite","lat":48.81183,"lon":2.18764},{"name":"Chaville-Rive-Gauche","lat":48.80517,"lon":2.18951},{"name":"Chaville-V\u00e9lizy","lat":48.79983,"lon":2.18318},{"name":"Chazay-Marcilly","lat":45.87375,"lon":4.72648},{"name":"Chedde-Voie-\u00c9troite","lat":45.9265,"lon":6.71962},{"name":"Chef-du-Pont-Ste-M\u00e8re","lat":49.38432,"lon":-1.34428},{"name":"Cheilly-l\u00e8s-Maranges","lat":46.89283,"lon":4.676},{"name":"Chelles-Gournay","lat":48.87427,"lon":2.5832},{"name":"Chemill\u00e9","lat":47.21776,"lon":-0.73231},{"name":"Chemilly-Appoigny","lat":47.89741,"lon":3.5543},{"name":"Chemin-d'Antony","lat":48.74805,"lon":2.31326},{"name":"Chenay-Gagny","lat":48.87747,"lon":2.55268},{"name":"Chenevi\u00e8res","lat":48.51924,"lon":6.63303},{"name":"Chenonceaux-Chisseaux","lat":47.3306,"lon":1.06596},{"name":"Cheny","lat":47.94672,"lon":3.52643},{"name":"Chepy-Valines","lat":50.06818,"lon":1.63518},{"name":"Cherbourg","lat":49.63445,"lon":-1.61839},{"name":"Chessy","lat":45.88546,"lon":4.62229},{"name":"Chevaign\u00e9","lat":48.2089,"lon":-1.63115},{"name":"Chevillon","lat":48.52427,"lon":5.11183},{"name":"Chevilly","lat":48.02667,"lon":1.87911},{"name":"Ch\u00e8vremont","lat":47.62166,"lon":6.92074},{"name":"Chevri\u00e8res","lat":49.33727,"lon":2.68293},{"name":"Ch\u00e9zy-sur-Marne","lat":48.99189,"lon":3.36438},{"name":"Chilly-Mazarin","lat":48.69997,"lon":2.30952},{"name":"Chindrieux","lat":45.80331,"lon":5.84668},{"name":"Chinon","lat":47.16306,"lon":0.25205},{"name":"Chirac","lat":44.52288,"lon":3.2645},{"name":"Chissay-en-Touraine","lat":47.33499,"lon":1.13485},{"name":"Chocques","lat":50.5382,"lon":2.56493},{"name":"Choisy-au-Bac","lat":49.44232,"lon":2.86228},{"name":"Choisy-le-Roi","lat":48.764,"lon":2.41118},{"name":"Cholet","lat":47.06631,"lon":-0.87047},{"name":"Chorges","lat":44.54571,"lon":6.27207},{"name":"Chouzy","lat":47.52052,"lon":1.24799},{"name":"Cinq-Mars","lat":47.3448,"lon":0.46008},{"name":"Cintegabelle","lat":43.30537,"lon":1.5205},{"name":"Cires-l\u00e8s-Mello","lat":49.27039,"lon":2.36034},{"name":"Ciry-le-Noble","lat":46.60439,"lon":4.3007},{"name":"Civrieux-d'Azergues","lat":45.86009,"lon":4.71908},{"name":"Cize-Bolozon","lat":46.21357,"lon":5.45386},{"name":"Clacy-Mons","lat":49.54358,"lon":3.57638},{"name":"Clamart","lat":48.81417,"lon":2.27419},{"name":"Clamecy","lat":47.46705,"lon":3.52058},{"name":"Clelles-Mens","lat":44.82702,"lon":5.60472},{"name":"Cl\u00e8res","lat":49.59955,"lon":1.10645},{"name":"Clermont-de-l'Oise","lat":49.38545,"lon":2.41752},{"name":"Clermont-en-Argonne","lat":49.1066,"lon":5.06526},{"name":"Clermont-Ferrand","lat":45.77857,"lon":3.10052},{"name":"Clermont-La Pardieu","lat":45.76785,"lon":3.13264},{"name":"Clerval","lat":47.39637,"lon":6.49221},{"name":"Clichy-Levallois","lat":48.89771,"lon":2.29727},{"name":"Clion-sur-Seugne","lat":45.4785,"lon":-0.5021},{"name":"Clisson","lat":47.08585,"lon":-1.28675},{"name":"Cloyes","lat":47.99225,"lon":1.2434},{"name":"Cluses","lat":46.06148,"lon":6.58277},{"name":"Coarraze-Nay","lat":43.18178,"lon":-0.24181},{"name":"Coat-Gu\u00e9gan","lat":48.48044,"lon":-3.27372},{"name":"Cobrieux","lat":50.53809,"lon":3.21956},{"name":"Cognac","lat":45.68446,"lon":-0.32616},{"name":"Coigni\u00e8res","lat":48.74403,"lon":1.92181},{"name":"Collioure","lat":42.52306,"lon":3.08302},{"name":"Collonges (C\u00f4te-d'Or)","lat":47.22086,"lon":5.26615},{"name":"Collonges-Fontaines","lat":45.82884,"lon":4.84636},{"name":"Colmar","lat":48.0732,"lon":7.34697},{"name":"Colmar-M\u00e9sanges","lat":48.08576,"lon":7.33399},{"name":"Colmar-St-Joseph","lat":48.08211,"lon":7.34377},{"name":"Colombes","lat":48.92389,"lon":2.25916},{"name":"Colombier-Fontaine","lat":47.4556,"lon":6.68932},{"name":"Colomiers","lat":43.60327,"lon":1.33411},{"name":"Colomiers-Lyc\u00e9e-International","lat":43.61643,"lon":1.31393},{"name":"Colroy-Lubine","lat":48.31464,"lon":7.13088},{"name":"Combourg","lat":48.41598,"lon":-1.72754},{"name":"Combs-la-Ville-Quincy","lat":48.66746,"lon":2.54797},{"name":"Comines-France","lat":50.76111,"lon":3.01013},{"name":"Commentry","lat":46.2955,"lon":2.74178},{"name":"Commercy","lat":48.76575,"lon":5.58892},{"name":"Compans","lat":48.9916,"lon":2.66521},{"name":"Compi\u00e8gne","lat":49.42273,"lon":2.82445},{"name":"Conches","lat":48.96234,"lon":0.93897},{"name":"Condat-le-Lardin","lat":45.12671,"lon":1.22665},{"name":"Cond\u00e9-sur-Huisne","lat":48.38351,"lon":0.84897},{"name":"Conflans-Fin-d'Oise","lat":48.98831,"lon":2.07468},{"name":"Conflans-Jarny","lat":49.16666,"lon":5.86811},{"name":"Conflans-Sainte-Honorine","lat":48.99678,"lon":2.0988},{"name":"Conlie","lat":48.12716,"lon":-0.01107},{"name":"Connerr\u00e9-Beill\u00e9","lat":48.07413,"lon":0.48764},{"name":"Contrex\u00e9ville","lat":48.17928,"lon":5.88997},{"name":"Corbehem","lat":50.3434,"lon":3.04112},{"name":"Corbeil-Essonnes","lat":48.61464,"lon":2.47399},{"name":"Corbie","lat":49.91199,"lon":2.50005},{"name":"Corbigny","lat":47.25452,"lon":3.6774},{"name":"Corcieux-Van\u00e9mont","lat":48.19841,"lon":6.8775},{"name":"Corcy","lat":49.25536,"lon":3.21605},{"name":"Cordemais","lat":47.30202,"lon":-1.84617},{"name":"Cordesse-Igornay","lat":47.05115,"lon":4.34297},{"name":"Cordes-Vindrac","lat":44.06701,"lon":1.89999},{"name":"Corgoloin","lat":47.08425,"lon":4.91721},{"name":"Cormeilles-en-Parisis","lat":48.96852,"lon":2.19345},{"name":"Cormery","lat":47.26236,"lon":0.83383},{"name":"Cornil","lat":45.21528,"lon":1.69742},{"name":"Coron-de-M\u00e9ricourt","lat":50.4149,"lon":2.88478},{"name":"Corps-Nuds","lat":47.98562,"lon":-1.57547},{"name":"Corr\u00e8ze","lat":45.32934,"lon":1.88039},{"name":"Corseul-Languenan","lat":48.49601,"lon":-2.14141},{"name":"Cosne-sur-Loire","lat":47.41399,"lon":2.93204},{"name":"Coucy-les-Eppes","lat":49.55563,"lon":3.77588},{"name":"Coudekerque-Branche","lat":51.01886,"lon":2.37482},{"name":"Coudray-Montceaux","lat":48.56622,"lon":2.49227},{"name":"Cou\u00e9ron","lat":47.22217,"lon":-1.72469},{"name":"Couffoulens-Leuc","lat":43.15518,"lon":2.31694},{"name":"Couilly-St-Germain","lat":48.88281,"lon":2.85426},{"name":"Couiza-Montazels","lat":42.9426,"lon":2.24834},{"name":"Coulanges-sur-Yonne","lat":47.52681,"lon":3.54682},{"name":"Couliboeuf","lat":48.92359,"lon":-0.09849},{"name":"Coulommiers","lat":48.80765,"lon":3.08182},{"name":"Courbevoie","lat":48.89786,"lon":2.24778},{"name":"Courcay-Tauxigny","lat":47.23783,"lon":0.86763},{"name":"Courcelles-le-Comte","lat":50.16876,"lon":2.78775},{"name":"Courcelles-sur-Nied","lat":49.06352,"lon":6.31099},{"name":"Courcy-Brimont","lat":49.32916,"lon":4.01496},{"name":"Courghain","lat":50.99691,"lon":2.29306},{"name":"Coursan","lat":43.23355,"lon":3.05068},{"name":"Courtalain-St-Pellerin","lat":48.07369,"lon":1.1266},{"name":"Courth\u00e9zon","lat":44.09031,"lon":4.88843},{"name":"Courville-sur-Eure","lat":48.45157,"lon":1.23482},{"name":"Cousance","lat":46.53514,"lon":5.38686},{"name":"Coussac-Bonneval","lat":45.50797,"lon":1.31028},{"name":"Coutances","lat":49.04281,"lon":-1.44127},{"name":"Coutras","lat":45.03668,"lon":-0.13141},{"name":"Couze","lat":44.83663,"lon":0.7029},{"name":"Couzon-au-Mont-d'Or","lat":45.84843,"lon":4.82913},{"name":"Cramoisy","lat":49.25635,"lon":2.40548},{"name":"Cransac","lat":44.52297,"lon":2.27117},{"name":"Cravant-Bazarnes","lat":47.67981,"lon":3.68089},{"name":"Cr\u00eaches-sur-Sa\u00f4ne","lat":46.24608,"lon":4.78406},{"name":"Cr\u00e9cy-en-Brie-La Chapelle","lat":48.85966,"lon":2.90564},{"name":"Creil","lat":49.26335,"lon":2.46784},{"name":"Cr\u00e9pieux-la-Pape","lat":45.8037,"lon":4.89265},{"name":"Cr\u00e9py-Couvron","lat":49.62352,"lon":3.51666},{"name":"Cr\u00e9py-en-Valois","lat":49.23122,"lon":2.88844},{"name":"Crest","lat":44.72982,"lon":5.01621},{"name":"Creysse-Mouleydier","lat":44.85563,"lon":0.58144},{"name":"Criss\u00e9","lat":48.16752,"lon":-0.0651},{"name":"Croix-d'Hins","lat":44.70967,"lon":-0.81591},{"name":"Croix-l'Allumette","lat":50.68651,"lon":3.15068},{"name":"Croix-Sainte","lat":43.40873,"lon":5.01973},{"name":"Croix-Wasquehal","lat":50.67858,"lon":3.13773},{"name":"Cros-de-Cagnes","lat":43.66025,"lon":7.16622},{"name":"Crouy","lat":49.40381,"lon":3.3567},{"name":"Crouy-sur-Ourcq","lat":49.09155,"lon":3.0629},{"name":"Cubzac-les-Ponts","lat":44.97295,"lon":-0.45923},{"name":"Cuers-Pierrefeu","lat":43.23773,"lon":6.08604},{"name":"Cugand-la-Bernardi\u00e8re","lat":47.05769,"lon":-1.2517},{"name":"Cuinchy","lat":50.52207,"lon":2.74521},{"name":"Culmont-Chalindrey","lat":47.80974,"lon":5.44302},{"name":"Culoz","lat":45.84276,"lon":5.77849},{"name":"Cysoing","lat":50.56058,"lon":3.2113},{"name":"Dachstein","lat":48.54273,"lon":7.53269},{"name":"Dambach-la-Ville","lat":48.3212,"lon":7.43551},{"name":"Damblain","lat":48.09365,"lon":5.65631},{"name":"Damiatte-St-Paul","lat":43.65623,"lon":1.97431},{"name":"Dammartin-Juilly-St-Mard","lat":49.03245,"lon":2.69951},{"name":"Dang\u00e9","lat":46.93782,"lon":0.60878},{"name":"Dannemarie","lat":47.62741,"lon":7.1239},{"name":"Dannemarie-Velesmes","lat":47.20376,"lon":5.87362},{"name":"Dannes-Camiers","lat":50.57621,"lon":1.61484},{"name":"Daours","lat":49.89905,"lon":2.45884},{"name":"Dardilly-le-Jubin","lat":45.81457,"lon":4.76167},{"name":"Dardilly-les-Mouilles","lat":45.7959,"lon":4.76002},{"name":"Darsac","lat":45.14231,"lon":3.73615},{"name":"Dax","lat":43.72081,"lon":-1.05051},{"name":"Decize","lat":46.83745,"lon":3.46752},{"name":"D\u00e9gagnac","lat":44.6535,"lon":1.34016},{"name":"Deluz","lat":47.29287,"lon":6.19995},{"name":"Denain","lat":50.33479,"lon":3.3881},{"name":"Dercy-Froidmont","lat":49.70273,"lon":3.69204},{"name":"Dettwiller","lat":48.7517,"lon":7.46539},{"name":"Deuil-Montmagny","lat":48.97561,"lon":2.33778},{"name":"De\u00fbl\u00e9mont","lat":50.71643,"lon":2.9938},{"name":"Deville","lat":49.87955,"lon":4.70702},{"name":"Diarville","lat":48.39783,"lon":6.12632},{"name":"Die","lat":44.75813,"lon":5.36294},{"name":"Diemeringen","lat":48.941,"lon":7.18478},{"name":"Dieppe","lat":49.91679,"lon":1.08117},{"name":"Dieulouard","lat":48.84367,"lon":6.07129},{"name":"Dieupentale","lat":43.86526,"lon":1.27601},{"name":"Digoin","lat":46.48547,"lon":3.99296},{"name":"Dijon-Porte-Neuve","lat":47.32309,"lon":5.05516},{"name":"Dijon-Ville","lat":47.3235,"lon":5.02588},{"name":"Dinan","lat":48.45697,"lon":-2.05298},{"name":"Ding\u00e9","lat":48.35013,"lon":-1.68583},{"name":"Diou (Allier)","lat":46.53074,"lon":3.7525},{"name":"Dirinon","lat":48.3926,"lon":-4.28559},{"name":"Dissay (Vienne)","lat":46.70374,"lon":0.42113},{"name":"Distroff","lat":49.33512,"lon":6.26022},{"name":"Dives-Cabourg","lat":49.28236,"lon":-0.10986},{"name":"Dives-sur-Mer-Port-Guillaume","lat":49.2892,"lon":-0.10407},{"name":"Docelles-Chenim\u00e9nil","lat":48.14334,"lon":6.61017},{"name":"Dol","lat":48.54298,"lon":-1.75046},{"name":"Dole-Ville","lat":47.09641,"lon":5.48797},{"name":"Dombasle-sur-Meurthe","lat":48.62335,"lon":6.34354},{"name":"Domblans-Voiteur","lat":46.76106,"lon":5.59763},{"name":"Domfront (Sarthe)","lat":48.10776,"lon":0.02602},{"name":"Dommartin-Lissieu","lat":45.8469,"lon":4.73196},{"name":"Dommartin-Remiencourt","lat":49.79799,"lon":2.39189},{"name":"Domont","lat":49.03288,"lon":2.33785},{"name":"Dompierre (Nord)","lat":50.14621,"lon":3.87139},{"name":"Dompierre-Sept-Fons","lat":46.52643,"lon":3.67544},{"name":"Donchery","lat":49.69813,"lon":4.87458},{"name":"Donges","lat":47.30884,"lon":-2.07253},{"name":"Donjeux","lat":48.36593,"lon":5.14842},{"name":"Don-Sainghin","lat":50.55189,"lon":2.91415},{"name":"Donz\u00e8re","lat":44.44276,"lon":4.70454},{"name":"Dordives","lat":48.14765,"lon":2.76253},{"name":"Dorlisheim","lat":48.52429,"lon":7.49283},{"name":"Dormans","lat":49.07925,"lon":3.64174},{"name":"Douai","lat":50.37329,"lon":3.09077},{"name":"Dourdan","lat":48.53354,"lon":2.01016},{"name":"Dourdan-la-For\u00eat","lat":48.53556,"lon":1.99694},{"name":"Dourges","lat":50.43153,"lon":2.98579},{"name":"Douzillac","lat":45.07936,"lon":0.41703},{"name":"Dracy-Saint-Loup","lat":47.00837,"lon":4.3435},{"name":"Drancy","lat":48.93252,"lon":2.45561},{"name":"Drap-Cantaron","lat":43.75962,"lon":7.31681},{"name":"Dreffeac","lat":47.48182,"lon":-2.05032},{"name":"Dreuil-l\u00e8s-Amiens","lat":49.91514,"lon":2.2281},{"name":"Dreux","lat":48.73122,"lon":1.37065},{"name":"Drusenheim","lat":48.7659,"lon":7.94738},{"name":"Druye","lat":47.3068,"lon":0.53547},{"name":"Dunkerque","lat":51.03464,"lon":2.36454},{"name":"Duppigheim","lat":48.54405,"lon":7.58708},{"name":"Durtol-Nohanent","lat":45.79542,"lon":3.04883},{"name":"Duttlenheim","lat":48.54559,"lon":7.56563},{"name":"Ebblinghem","lat":50.73086,"lon":2.40881},{"name":"Ebersheim","lat":48.30881,"lon":7.49271},{"name":"Ebersviller","lat":49.27482,"lon":6.41135},{"name":"Echirolles","lat":45.15313,"lon":5.71913},{"name":"\u00c9commoy","lat":47.82401,"lon":0.2694},{"name":"\u00c9couch\u00e9","lat":48.71494,"lon":-0.12113},{"name":"\u00c9couen-\u00c9zanville","lat":49.02276,"lon":2.3629},{"name":"\u00c9couflant","lat":47.50387,"lon":-0.51962},{"name":"\u00c9cully-la-Demi-Lune","lat":45.76596,"lon":4.77969},{"name":"\u00c9gletons","lat":45.40232,"lon":2.06515},{"name":"\u00c9gly","lat":48.58241,"lon":2.22221},{"name":"\u00c9guzon","lat":46.44043,"lon":1.55203},{"name":"Eichhoffen","lat":48.38231,"lon":7.44986},{"name":"Einvaux","lat":48.50311,"lon":6.39275},{"name":"Elbeuf-St-Aubin","lat":49.30348,"lon":1.00926},{"name":"Elne","lat":42.59736,"lon":2.96353},{"name":"\u00c9loyes","lat":48.08623,"lon":6.60032},{"name":"Embrun","lat":44.56686,"lon":6.49626},{"name":"\u00c9merainville-Pontault-Combault","lat":48.80666,"lon":2.6174},{"name":"Enchenberg","lat":49.01604,"lon":7.33377},{"name":"Enghien-les-Bains","lat":48.97353,"lon":2.30614},{"name":"Ennevelin","lat":50.54985,"lon":3.15837},{"name":"Entzheim","lat":48.54737,"lon":7.63001},{"name":"\u00c9pannes","lat":46.24486,"lon":-0.58163},{"name":"\u00c9panvilliers","lat":46.22689,"lon":0.23591},{"name":"\u00c9pernay","lat":49.04652,"lon":3.96024},{"name":"\u00c9pernon","lat":48.60509,"lon":1.68168},{"name":"Epfig","lat":48.36356,"lon":7.44982},{"name":"\u00c9pierre-St-L\u00e9ger","lat":45.45676,"lon":6.29253},{"name":"\u00c9pinal","lat":48.17758,"lon":6.44141},{"name":"\u00c9pinay-sur-Orge","lat":48.66934,"lon":2.33224},{"name":"\u00c9pinay-sur-Seine","lat":48.95408,"lon":2.30237},{"name":"\u00c9pinay-Villetaneuse","lat":48.95849,"lon":2.32797},{"name":"\u00c9pluches","lat":49.0555,"lon":2.12346},{"name":"\u00c9p\u00f4ne-M\u00e9zi\u00e8res","lat":48.96329,"lon":1.80928},{"name":"\u00c9pouville","lat":49.56679,"lon":0.22425},{"name":"\u00c9ragny-Neuville","lat":49.01825,"lon":2.09097},{"name":"Ermont-Eaubonne","lat":48.98054,"lon":2.27276},{"name":"Ermont-Halte","lat":48.99105,"lon":2.26314},{"name":"Err","lat":42.44626,"lon":2.02761},{"name":"Erstein","lat":48.42286,"lon":7.6381},{"name":"Esbly","lat":48.90314,"lon":2.8106},{"name":"Escalquens","lat":43.51682,"lon":1.54238},{"name":"Escaudoeuvres","lat":50.19254,"lon":3.27636},{"name":"Esches","lat":49.21251,"lon":2.17081},{"name":"Esp\u00e9raza","lat":42.93582,"lon":2.21803},{"name":"Esquelbecq","lat":50.89039,"lon":2.41202},{"name":"Essonnes-Robinson","lat":48.60618,"lon":2.46368},{"name":"Estavar","lat":42.46301,"lon":2.02327},{"name":"Estr\u00e9es-St-Denis","lat":49.43787,"lon":2.64266},{"name":"Estressin","lat":45.54033,"lon":4.86797},{"name":"Esvres","lat":47.28412,"lon":0.78157},{"name":"\u00c9tain","lat":49.20771,"lon":5.63949},{"name":"\u00c9tainhus-St-Romain","lat":49.5608,"lon":0.33055},{"name":"\u00c9talans","lat":47.15585,"lon":6.27097},{"name":"\u00c9tampes","lat":48.43686,"lon":2.159},{"name":"\u00c9tang","lat":46.86802,"lon":4.18363},{"name":"\u00c9taples-Le Touquet","lat":50.51692,"lon":1.64352},{"name":"\u00c9tigny-V\u00e9ron","lat":48.13807,"lon":3.28984},{"name":"\u00c9tival-Clairefontaine","lat":48.36667,"lon":6.87704},{"name":"\u00c9tr\u00e9chy","lat":48.49364,"lon":2.19445},{"name":"\u00c9trich\u00e9-Ch\u00e2teauneuf","lat":47.65681,"lon":-0.46065},{"name":"Eu","lat":50.0543,"lon":1.41691},{"name":"Eu-la-Mouillette","lat":50.04882,"lon":1.42551},{"name":"Eurville","lat":48.5829,"lon":5.04489},{"name":"\u00c9vian-les-Bains","lat":46.3976,"lon":6.57715},{"name":"\u00c9vreux-Normandie","lat":49.01833,"lon":1.14824},{"name":"\u00c9vron","lat":48.15547,"lon":-0.39719},{"name":"\u00c9vry","lat":48.63484,"lon":2.45182},{"name":"\u00c9vry-Courcouronnes","lat":48.62584,"lon":2.4296},{"name":"Exideuil-sur-Vienne","lat":45.88638,"lon":0.6668},{"name":"Eygurande-Merlines","lat":45.64515,"lon":2.46058},{"name":"Eymoutiers-Lac-de-Vassivi\u00e8re","lat":45.73963,"lon":1.74024},{"name":"Eze","lat":43.72212,"lon":7.35696},{"name":"Facture Biganos","lat":44.63738,"lon":-0.96575},{"name":"Famechon","lat":49.76756,"lon":2.04356},{"name":"Farbus","lat":50.35769,"lon":2.83114},{"name":"Far\u00e9bersviller","lat":49.11809,"lon":6.86159},{"name":"Faremoutiers-Pommeuse","lat":48.80855,"lon":2.99341},{"name":"Farschviller","lat":49.08801,"lon":6.90817},{"name":"Faubourg-d'Orl\u00e9ans","lat":47.36692,"lon":1.74073},{"name":"Fauga","lat":43.40446,"lon":1.28248},{"name":"Faulquemont","lat":49.04568,"lon":6.60395},{"name":"F\u00e9camp","lat":49.75947,"lon":0.3739},{"name":"Fegersheim-Lipsheim","lat":48.49079,"lon":7.67221},{"name":"Fellering","lat":47.89733,"lon":6.98729},{"name":"Felletin","lat":45.88651,"lon":2.16947},{"name":"Fenouillet-St-Alban","lat":43.68407,"lon":1.40155},{"name":"F\u00e9pin","lat":50.02374,"lon":4.72575},{"name":"F\u00e8re-en-Tardenois","lat":49.20852,"lon":3.50402},{"name":"Ferri\u00e8res-Fontenay","lat":48.09663,"lon":2.77221},{"name":"Feuquerolles","lat":50.06485,"lon":1.60491},{"name":"Feuqui\u00e8res-Broquiers","lat":49.65444,"lon":1.83118},{"name":"Feuqui\u00e8res-Fressenneville","lat":50.06339,"lon":1.58898},{"name":"Feurs","lat":45.74475,"lon":4.23068},{"name":"Feyzin","lat":45.66605,"lon":4.85307},{"name":"Figeac","lat":44.60288,"lon":2.03769},{"name":"Firminy","lat":45.39163,"lon":4.28541},{"name":"Fismes","lat":49.31084,"lon":3.68232},{"name":"Flavy-le-Martel","lat":49.71872,"lon":3.19061},{"name":"Flaxlanden","lat":47.69845,"lon":7.30421},{"name":"Flers","lat":48.74438,"lon":-0.57367},{"name":"Fleurieux-sur-l'Arbresle","lat":45.84466,"lon":4.66054},{"name":"Fleurville-Pont-de-Vaux","lat":46.45084,"lon":4.88406},{"name":"Flez-Cuzy-Tannay","lat":47.36285,"lon":3.61517},{"name":"Fo\u00ebcy","lat":47.17603,"lon":2.16206},{"name":"Foix","lat":42.96966,"lon":1.60699},{"name":"Folligny","lat":48.82981,"lon":-1.40755},{"name":"Fons-St-Mamert","lat":43.90733,"lon":4.20663},{"name":"Fontainebleau-Avon","lat":48.41621,"lon":2.72679},{"name":"Fontaine-le-Port","lat":48.48712,"lon":2.75323},{"name":"Fontaines-d'Ozillac","lat":45.38756,"lon":-0.38396},{"name":"Fontaines-Mercurey","lat":46.85127,"lon":4.77495},{"name":"Fontan-Saorge","lat":43.997,"lon":7.55162},{"name":"Fontenay-le-Fleury","lat":48.8071,"lon":2.04125},{"name":"Fontenoy-sur-Moselle","lat":48.7114,"lon":5.97988},{"name":"Fontp\u00e9drouse-St-Thomas-les-Bains","lat":42.51497,"lon":2.19086},{"name":"Font-Romeu-Odeillo-Via","lat":42.49094,"lon":2.04278},{"name":"Forbach","lat":49.18948,"lon":6.90043},{"name":"Forges-les-Eaux","lat":49.61386,"lon":1.55326},{"name":"Formerie","lat":49.65468,"lon":1.7237},{"name":"Fors","lat":46.23461,"lon":-0.40671},{"name":"Fos-sur-Mer","lat":43.428,"lon":4.97489},{"name":"Foucart-Alvimare","lat":49.60832,"lon":0.59693},{"name":"Fouday","lat":48.42479,"lon":7.18725},{"name":"Foug","lat":48.67919,"lon":5.79138},{"name":"Fougeray-Langon","lat":47.73023,"lon":-1.85118},{"name":"Fouger\u00e9","lat":46.66519,"lon":-1.23195},{"name":"Fouilloy","lat":49.73697,"lon":1.82678},{"name":"Fouquereuil","lat":50.52548,"lon":2.60721},{"name":"Fourchambault","lat":47.01917,"lon":3.08732},{"name":"Fourmies","lat":50.01542,"lon":4.05374},{"name":"Fours","lat":46.8237,"lon":3.72337},{"name":"Fraisse-Unieux","lat":45.39499,"lon":4.26082},{"name":"Francheville","lat":45.73139,"lon":4.77028},{"name":"Franconville-Plessis-Bouchard","lat":48.99356,"lon":2.23499},{"name":"Franois","lat":47.22745,"lon":5.93752},{"name":"Frasne","lat":46.85784,"lon":6.1577},{"name":"Freistroff","lat":49.2776,"lon":6.49083},{"name":"Fr\u00e9jus","lat":43.43172,"lon":6.73328},{"name":"Fr\u00e9jus-St-Rapha\u00ebl","lat":43.42879,"lon":6.755},{"name":"Saint-S\u00e9bastien-Fr\u00eane-Rond","lat":47.19057,"lon":-1.49604},{"name":"Fr\u00e9nouville-Cagny","lat":49.14043,"lon":-0.25843},{"name":"Fr\u00e9pillon","lat":49.04579,"lon":2.19711},{"name":"Fresnoy-le-Grand","lat":49.95014,"lon":3.4326},{"name":"Fressies","lat":50.25087,"lon":3.18925},{"name":"Fr\u00e9teval-Mor\u00e9e","lat":47.89204,"lon":1.21188},{"name":"Fretin (Nord)","lat":50.56107,"lon":3.1484},{"name":"Fr\u00e9vin-Capelle","lat":50.34723,"lon":2.63452},{"name":"Fromental","lat":46.17131,"lon":1.43246},{"name":"Froncles-Buxi\u00e8res","lat":48.29664,"lon":5.1416},{"name":"Frontenex","lat":45.6306,"lon":6.31432},{"name":"Frontignan","lat":43.44459,"lon":3.75902},{"name":"Fronville-St-Urbain","lat":48.40132,"lon":5.15608},{"name":"Frouard","lat":48.75539,"lon":6.14465},{"name":"Frynaudour","lat":48.72816,"lon":-3.12861},{"name":"Fumay","lat":49.98622,"lon":4.692},{"name":"Futuroscope","lat":46.67023,"lon":0.37811},{"name":"Gadagne","lat":43.92986,"lon":4.95693},{"name":"Gagny","lat":48.88348,"lon":2.52649},{"name":"Gaillac","lat":43.90612,"lon":1.89441},{"name":"Gaillon-Aubevoye","lat":49.17468,"lon":1.35263},{"name":"Gallargues","lat":43.71601,"lon":4.17105},{"name":"Galuzot","lat":46.64246,"lon":4.33008},{"name":"Gambsheim","lat":48.69492,"lon":7.8789},{"name":"Gammal","lat":44.27041,"lon":4.14666},{"name":"Gan","lat":43.23429,"lon":-0.39148},{"name":"Gandrange-Amn\u00e9ville","lat":49.26089,"lon":6.1358},{"name":"Gannat","lat":46.0976,"lon":3.20487},{"name":"Gannes","lat":49.57211,"lon":2.43703},{"name":"Gap","lat":44.56363,"lon":6.08539},{"name":"Garanci\u00e8res-la-Queue","lat":48.81042,"lon":1.76458},{"name":"Garches-Marnes-la-Coquette","lat":48.83798,"lon":2.18668},{"name":"Garchizy","lat":47.04299,"lon":3.08584},{"name":"Gardanne","lat":43.45636,"lon":5.46348},{"name":"Gardonne","lat":44.83468,"lon":0.33194},{"name":"Champagne Ardenne TGV","lat":49.21446,"lon":3.99359},{"name":"Lorraine TGV","lat":48.95081,"lon":6.17043},{"name":"Meuse TGV","lat":48.98017,"lon":5.27182},{"name":"Gargenville","lat":48.98307,"lon":1.80921},{"name":"Garges","lat":48.97685,"lon":2.39083},{"name":"Gauriaguet","lat":45.05431,"lon":-0.39929},{"name":"Gazeran","lat":48.62596,"lon":1.77085},{"name":"Gazinet-Cestas","lat":44.7722,"lon":-0.69914},{"name":"Geispolsheim","lat":48.52191,"lon":7.68535},{"name":"Gemeaux","lat":47.47781,"lon":5.13009},{"name":"Genech","lat":50.5284,"lon":3.22098},{"name":"G\u00e9nelard","lat":46.58107,"lon":4.23777},{"name":"G\u00e9n\u00e9rac","lat":43.73298,"lon":4.34415},{"name":"Genlis","lat":47.24448,"lon":5.22387},{"name":"Gennevilliers","lat":48.93339,"lon":2.30749},{"name":"G\u00e9nolhac","lat":44.34802,"lon":3.95182},{"name":"Germaine","lat":49.12795,"lon":4.0225},{"name":"Gertwiller","lat":48.4133,"lon":7.46592},{"name":"Gerzat","lat":45.83313,"lon":3.14304},{"name":"Gestel","lat":47.80311,"lon":-3.44336},{"name":"Gevrey-Chambertin","lat":47.22737,"lon":4.99878},{"name":"Gien","lat":47.69888,"lon":2.63675},{"name":"Gi\u00e8vres","lat":47.27917,"lon":1.66856},{"name":"Gignac-Cressensac","lat":45.01474,"lon":1.48326},{"name":"Gilles-Guainville","lat":48.91499,"lon":1.50557},{"name":"Gilley","lat":47.05046,"lon":6.49255},{"name":"Gilly-sur-Loire","lat":46.53666,"lon":3.78334},{"name":"Gironde","lat":44.58334,"lon":-0.09246},{"name":"Gisors","lat":49.28526,"lon":1.78505},{"name":"Givet","lat":50.14025,"lon":4.81799},{"name":"Givors-Canal","lat":45.59594,"lon":4.77215},{"name":"Givors-Ville","lat":45.58537,"lon":4.76625},{"name":"Glos-Montfort","lat":49.27362,"lon":0.68187},{"name":"Golfech","lat":44.1162,"lon":0.85383},{"name":"Golfe-Juan-Vallauris","lat":43.56615,"lon":7.07317},{"name":"Goncelin","lat":45.34203,"lon":5.97387},{"name":"Gonfaron","lat":43.31692,"lon":6.28166},{"name":"Gorges","lat":47.10779,"lon":-1.31374},{"name":"La Gouesni\u00e8re-Cancale","lat":48.61437,"lon":-1.90597},{"name":"Gourdon","lat":44.74181,"lon":1.38955},{"name":"Gourland","lat":48.55995,"lon":-3.16609},{"name":"Gournay-Ferri\u00e8res","lat":49.48118,"lon":1.73865},{"name":"Goussainville","lat":49.02405,"lon":2.4635},{"name":"Goxwiller","lat":48.4326,"lon":7.47872},{"name":"Graffenstaden","lat":48.53336,"lon":7.69011},{"name":"Graffenwald","lat":47.7803,"lon":7.22559},{"name":"Gragnague","lat":43.6958,"lon":1.56757},{"name":"Grainville-Ymauville","lat":49.65609,"lon":0.40711},{"name":"Gramat","lat":44.77312,"lon":1.72305},{"name":"Grand-Bourg","lat":48.648,"lon":2.4361},{"name":"Grand-Combe-La-Pise","lat":44.20994,"lon":4.03347},{"name":"Grande-Synthe","lat":51.00231,"lon":2.31215},{"name":"Grand-Pont-Preuilly","lat":46.63429,"lon":0.35971},{"name":"Grandvilliers","lat":49.65931,"lon":1.93883},{"name":"Granville","lat":48.83884,"lon":-1.58678},{"name":"Grasse","lat":43.65385,"lon":6.92676},{"name":"Gravelines","lat":50.9785,"lon":2.12594},{"name":"Gravigny-Balizy","lat":48.68623,"lon":2.3176},{"name":"Grenoble","lat":45.19149,"lon":5.71422},{"name":"Grenoble-Universit\u00e9-Gi\u00e8res","lat":45.18513,"lon":5.78552},{"name":"Gresswiller","lat":48.533,"lon":7.42465},{"name":"Gr\u00e9sy-sur-Aix","lat":45.72425,"lon":5.92182},{"name":"Gr\u00e9sy-sur-Is\u00e8re","lat":45.59447,"lon":6.25866},{"name":"Gretz-Armainvilliers","lat":48.74533,"lon":2.72865},{"name":"Grigny-Centre","lat":48.65107,"lon":2.39391},{"name":"Grigny-Val-de-Seine","lat":48.66854,"lon":2.39704},{"name":"Grisolles","lat":43.82651,"lon":1.3027},{"name":"Groisy-Thorens-la-Caille","lat":46.01053,"lon":6.17494},{"name":"Groslay","lat":48.98474,"lon":2.35434},{"name":"Gros-Noyer-St-Prix","lat":48.99713,"lon":2.25906},{"name":"Gudmont","lat":48.33749,"lon":5.14085},{"name":"Gu\u00e9rard-Celle-sur-Morin","lat":48.81043,"lon":2.95461},{"name":"Gu\u00e9ret","lat":46.17411,"lon":1.87939},{"name":"Gu\u00e9thary","lat":43.42539,"lon":-1.61013},{"name":"Guichen-Bourg-des-Comptes","lat":47.93418,"lon":-1.76067},{"name":"Guignicourt (Aisne)","lat":49.43545,"lon":3.96078},{"name":"Guillerval","lat":48.37527,"lon":2.06077},{"name":"Guimiliau","lat":48.485,"lon":-3.99892},{"name":"Guingamp","lat":48.55533,"lon":-3.1441},{"name":"Gujan-Mestras","lat":44.64051,"lon":-1.06934},{"name":"Gundershoffen","lat":48.90538,"lon":7.65311},{"name":"Gunsbach-Griesbach","lat":48.04158,"lon":7.17488},{"name":"Habsheim","lat":47.73773,"lon":7.41827},{"name":"Hachette","lat":50.15841,"lon":3.7431},{"name":"Hagondange","lat":49.25531,"lon":6.16424},{"name":"Haguenau","lat":48.81342,"lon":7.78235},{"name":"Halsou-Larressore","lat":43.37823,"lon":-1.42823},{"name":"Ham (Somme)","lat":49.73953,"lon":3.07052},{"name":"Ham-en-Artois","lat":50.59106,"lon":2.46588},{"name":"Hangest","lat":49.9822,"lon":2.06645},{"name":"Harfleur","lat":49.51331,"lon":0.19835},{"name":"Harfleur-Halte","lat":49.5064,"lon":0.19233},{"name":"Hargicourt-Pierrepont","lat":49.71508,"lon":2.53001},{"name":"Hasenrain","lat":47.73558,"lon":7.32946},{"name":"Hatrize","lat":49.19345,"lon":5.90701},{"name":"Haubourdin","lat":50.60708,"lon":2.99049},{"name":"Haussmann-St-Lazare","lat":48.87495,"lon":2.33092},{"name":"Hautmont","lat":50.2538,"lon":3.9155},{"name":"Hayange","lat":49.33052,"lon":6.07366},{"name":"Haybes","lat":50.01174,"lon":4.70396},{"name":"Hazebrouck","lat":50.72553,"lon":2.53887},{"name":"Heiligenberg-Mollkirch","lat":48.52747,"lon":7.38149},{"name":"Heilles-Mouchy","lat":49.34037,"lon":2.27298},{"name":"Heilly","lat":49.94383,"lon":2.53998},{"name":"Hellemmes","lat":50.62267,"lon":3.11559},{"name":"Hendaye","lat":43.35317,"lon":-1.78209},{"name":"H\u00e9nin-Beaumont","lat":50.41611,"lon":2.95073},{"name":"Hennebont","lat":47.79893,"lon":-3.28565},{"name":"Herbitzheim","lat":49.01399,"lon":7.08007},{"name":"Herblay","lat":48.99065,"lon":2.16134},{"name":"Herchies","lat":49.48777,"lon":2.0106},{"name":"H\u00e9ricourt","lat":47.57306,"lon":6.76941},{"name":"H\u00e9ricy","lat":48.44119,"lon":2.75913},{"name":"Hermes-Berthecourt","lat":49.35412,"lon":2.24138},{"name":"Herny","lat":49.00409,"lon":6.47771},{"name":"Herrlisheim (Bas-Rhin)","lat":48.7275,"lon":7.91035},{"name":"Herrlisheim-pr\u00e8s-Colmar","lat":48.01756,"lon":7.32055},{"name":"Hesdigneul","lat":50.66064,"lon":1.66691},{"name":"Hesdin","lat":50.37827,"lon":2.03519},{"name":"Hettange-Grande","lat":49.40827,"lon":6.15604},{"name":"Hippodrome-de-la-C\u00f4te-d'Azur","lat":43.64944,"lon":7.14154},{"name":"Hirson","lat":49.9143,"lon":4.08444},{"name":"Hirson-Ecoles","lat":49.92973,"lon":4.08567},{"name":"Hochfelden","lat":48.75539,"lon":7.57189},{"name":"Hoelschloch","lat":48.91624,"lon":7.83144},{"name":"Hoenheim-Tram","lat":48.62821,"lon":7.75743},{"name":"Hoerdt","lat":48.70297,"lon":7.77908},{"name":"Hoffen","lat":48.93122,"lon":7.93298},{"name":"Holtzheim","lat":48.55548,"lon":7.66265},{"name":"Hombourg-Budange","lat":49.28251,"lon":6.35064},{"name":"Hombourg-Haut","lat":49.12617,"lon":6.7734},{"name":"Hom\u00e9court","lat":49.21822,"lon":5.99799},{"name":"Houdan","lat":48.79604,"lon":1.60284},{"name":"Houdemont","lat":48.6452,"lon":6.17976},{"name":"Houilles-Carri\u00e8res-sur-Seine","lat":48.92059,"lon":2.18474},{"name":"Houlgate","lat":49.30001,"lon":-0.0777},{"name":"Hundling","lat":49.10658,"lon":6.97576},{"name":"Hunspach","lat":48.96119,"lon":7.95402},{"name":"Huriel","lat":46.37143,"lon":2.47612},{"name":"Hy\u00e8res","lat":43.10826,"lon":6.12463},{"name":"Hymont-Mattaincourt","lat":48.27073,"lon":6.14055},{"name":"Igney","lat":48.27129,"lon":6.39939},{"name":"Igney-Avricourt","lat":48.6464,"lon":6.80437},{"name":"Igny","lat":48.7398,"lon":2.23107},{"name":"Ille-sur-T\u00eat","lat":42.66848,"lon":2.62466},{"name":"Illfurth","lat":47.67603,"lon":7.26818},{"name":"Illiers-Combray","lat":48.30427,"lon":1.24493},{"name":"Imphy","lat":46.93325,"lon":3.25937},{"name":"Ingersheim-Cit\u00e9-Scolaire","lat":48.08863,"lon":7.29741},{"name":"Ingrandes-sur-Loire","lat":47.40594,"lon":-0.92053},{"name":"Ingrandes-sur-Vienne","lat":46.87483,"lon":0.56952},{"name":"Ingwiller","lat":48.87174,"lon":7.47677},{"name":"Invalides","lat":48.86296,"lon":2.31156},{"name":"Isles-Armenti\u00e8res","lat":48.99814,"lon":3.00755},{"name":"Issoire","lat":45.54482,"lon":3.25412},{"name":"Issoudun","lat":46.94865,"lon":1.98544},{"name":"Issou-Porcheville","lat":48.97928,"lon":1.78592},{"name":"Is-sur-Tille","lat":47.52023,"lon":5.12983},{"name":"Issy","lat":48.82074,"lon":2.26085},{"name":"Issy Val de Seine","lat":48.83112,"lon":2.26463},{"name":"Istres","lat":43.51545,"lon":4.98028},{"name":"Iteuil","lat":46.48512,"lon":0.31877},{"name":"Itxassou","lat":43.32404,"lon":-1.39495},{"name":"Ivry-sur-Seine","lat":48.81419,"lon":2.39168},{"name":"Iwuy","lat":50.22515,"lon":3.32975},{"name":"Jacques Monod-la demi-lieue","lat":49.5273,"lon":0.18583},{"name":"Janz\u00e9","lat":47.95512,"lon":-1.4974},{"name":"Jarnac-Charente","lat":45.6713,"lon":-0.17791},{"name":"Jarrie-Vizille","lat":45.08542,"lon":5.74227},{"name":"Jarville-la-Malgrange","lat":48.66983,"lon":6.20327},{"name":"Jassonneix","lat":45.54353,"lon":2.13963},{"name":"Jatxou","lat":43.39145,"lon":-1.44465},{"name":"Jaunay-Clan","lat":46.68231,"lon":0.3819},{"name":"Jaux","lat":49.38646,"lon":2.7772},{"name":"Javel","lat":48.84815,"lon":2.2793},{"name":"Lyon Jean Mac\u00e9","lat":45.74498,"lon":4.84173},{"name":"Jeumont","lat":50.29673,"lon":4.0892},{"name":"Joeuf","lat":49.22454,"lon":6.01716},{"name":"Joigny","lat":47.97349,"lon":3.39343},{"name":"Joigny-sur-Meuse","lat":49.83337,"lon":4.76702},{"name":"Joinville (Haute-Marne)","lat":48.44474,"lon":5.1443},{"name":"Joncet","lat":42.562,"lon":2.31186},{"name":"Jonchery-sur-Vesle","lat":49.28972,"lon":3.81987},{"name":"Jonqui\u00e8res-St-Vincent","lat":43.79691,"lon":4.53252},{"name":"Jonzac","lat":45.43872,"lon":-0.44199},{"name":"Jou\u00e9-l\u00e8s-Tours","lat":47.3542,"lon":0.66801},{"name":"Jouy","lat":48.51113,"lon":1.55859},{"name":"Jouy-en-Josas","lat":48.76454,"lon":2.16817},{"name":"Jouy-sur-Morin-Le Marais","lat":48.79062,"lon":3.27351},{"name":"Juan-les-Pins","lat":43.57074,"lon":7.11079},{"name":"Juvisy","lat":48.6892,"lon":2.38343},{"name":"Juziers","lat":48.99222,"lon":1.84593},{"name":"Kalhausen","lat":49.03533,"lon":7.12525},{"name":"K\u00e9dange","lat":49.30567,"lon":6.33227},{"name":"Kerhostin","lat":47.53678,"lon":-3.13654},{"name":"Kerhuon","lat":48.4096,"lon":-4.38798},{"name":"Ker-Lann-Bruz","lat":48.04382,"lon":-1.73894},{"name":"Keskastel","lat":48.96515,"lon":7.04903},{"name":"Kilstett","lat":48.67932,"lon":7.85475},{"name":"Koenigsmacker","lat":49.3945,"lon":6.26886},{"name":"Kogenheim","lat":48.33874,"lon":7.5346},{"name":"Krimmeri-Meinau","lat":48.56388,"lon":7.75231},{"name":"Kruth","lat":47.92247,"lon":6.9696},{"name":"Kuntzig","lat":49.34991,"lon":6.23458},{"name":"Kurtzenhouse","lat":48.7417,"lon":7.81308},{"name":"La Bachellerie","lat":45.15112,"lon":1.16009},{"name":"La Barre-Ormesson","lat":48.96654,"lon":2.3163},{"name":"La Bass\u00e9e-Violaines","lat":50.52732,"lon":2.80367},{"name":"La Basse-Indre-St-Herblain","lat":47.20428,"lon":-1.66105},{"name":"La Bastide-St-Laurent-les-Bains","lat":44.59258,"lon":3.90387},{"name":"La Baule-Escoublac","lat":47.28867,"lon":-2.38913},{"name":"La Baule-les-Pins","lat":47.28363,"lon":-2.36466},{"name":"La Bernerie","lat":47.08343,"lon":-2.03429},{"name":"La Beuvri\u00e8re","lat":50.52384,"lon":2.56179},{"name":"La Bohalle","lat":47.43448,"lon":-0.40096},{"name":"La Bonneville-sur-Iton","lat":48.98854,"lon":1.03583},{"name":"La Borne-Blanche","lat":49.12576,"lon":2.50765},{"name":"La Bourboule","lat":45.59092,"lon":2.74594},{"name":"La Bouteille","lat":49.85977,"lon":3.9823},{"name":"La Bridoire","lat":45.52905,"lon":5.74694},{"name":"La Brigue","lat":44.06239,"lon":7.59973},{"name":"La Brillane-Oraison","lat":43.92503,"lon":5.89243},{"name":"La Brohini\u00e8re","lat":48.21346,"lon":-2.11084},{"name":"La Capelle-Viescamp","lat":44.9205,"lon":2.26538},{"name":"La Cave","lat":45.1838,"lon":0.62767},{"name":"La Celle-Corr\u00e8ze","lat":45.64133,"lon":1.82641},{"name":"La Celle-St-Cloud","lat":48.84303,"lon":2.13767},{"name":"La Chaize-le-Vicomte","lat":46.67677,"lon":-1.28328},{"name":"La Chapelle-St-Mesmin","lat":47.89296,"lon":1.82674},{"name":"La Chapelle-sur-Loire","lat":47.25123,"lon":0.21891},{"name":"La Charit\u00e9","lat":47.18028,"lon":3.02402},{"name":"La Chaumusse-Fort-du-Plasne","lat":46.60476,"lon":5.96105},{"name":"La Chauss\u00e9e-St-Victor","lat":47.6135,"lon":1.35503},{"name":"La Chaux-des-Crotenay","lat":46.65585,"lon":5.9449},{"name":"La Ciotat","lat":43.19954,"lon":5.63264},{"name":"La Clayette-Baudemont","lat":46.2879,"lon":4.29834},{"name":"La Coquille","lat":45.54077,"lon":0.97422},{"name":"La Couronne-Carro","lat":43.34003,"lon":5.05262},{"name":"La Crau","lat":43.1449,"lon":6.06861},{"name":"La Cr\u00e8che","lat":46.36043,"lon":-0.29627},{"name":"La Croix-de-M\u00e9an","lat":47.30046,"lon":-2.19293},{"name":"La Croix-du-Prince","lat":43.28597,"lon":-0.37924},{"name":"La D\u00e9fense","lat":48.89311,"lon":2.23789},{"name":"La Douzill\u00e8re","lat":47.33864,"lon":0.65301},{"name":"La Faloise","lat":49.69667,"lon":2.34879},{"name":"La F\u00e8re","lat":49.65787,"lon":3.36978},{"name":"La Ferri\u00e8re","lat":45.77271,"lon":4.74691},{"name":"La Fert\u00e9-Alais","lat":48.48514,"lon":2.35202},{"name":"La Fert\u00e9-Bernard","lat":48.18599,"lon":0.63899},{"name":"La Fert\u00e9-Gaucher","lat":48.78219,"lon":3.2977},{"name":"La Fert\u00e9-Imbault","lat":47.38364,"lon":1.95857},{"name":"La Fert\u00e9-Milon","lat":49.17956,"lon":3.12103},{"name":"La Fert\u00e9-sous-Jouarre","lat":48.95097,"lon":3.12441},{"name":"La Fert\u00e9-St-Aubin","lat":47.7202,"lon":1.93254},{"name":"La Fontaine-Nord","lat":50.5653,"lon":2.92546},{"name":"La Forest","lat":48.4262,"lon":-4.30749},{"name":"La Fouillouse","lat":45.49783,"lon":4.31659},{"name":"La Fray\u00e8re","lat":43.55873,"lon":6.97175},{"name":"La Fresnais","lat":48.59363,"lon":-1.84314},{"name":"La Frette-Montigny","lat":48.98006,"lon":2.18011},{"name":"La Garde","lat":43.1187,"lon":6.01002},{"name":"La Garenne-Colombes","lat":48.90983,"lon":2.23904},{"name":"La Gauterie","lat":47.14217,"lon":1.49439},{"name":"La Gorp","lat":44.92875,"lon":-0.49651},{"name":"La Grande-Paroisse","lat":48.37861,"lon":2.89725},{"name":"La Grave-d'Ambar\u00e8s","lat":44.93566,"lon":-0.47701},{"name":"La Guerche-sur-l'Aubois","lat":46.94752,"lon":2.94871},{"name":"La Guierche","lat":48.1141,"lon":0.19308},{"name":"La Haie-Fouassi\u00e8re","lat":47.16155,"lon":-1.39292},{"name":"La Hisse","lat":48.49607,"lon":-2.00303},{"name":"La Hume","lat":44.63997,"lon":-1.11629},{"name":"La Hutte-Coulombiers","lat":48.30323,"lon":0.10528},{"name":"La Jonch\u00e8re","lat":45.99465,"lon":1.48063},{"name":"La Joux (Haute-Savoie)","lat":45.96583,"lon":6.91007},{"name":"La Levade","lat":44.2283,"lon":4.01069},{"name":"La Loupe","lat":48.47414,"lon":1.01115},{"name":"La Madeleine (Nord)","lat":50.6606,"lon":3.07259},{"name":"La Marche","lat":47.13976,"lon":3.03938},{"name":"La M\u00e9augon","lat":48.49998,"lon":-2.84501},{"name":"La Membrolle-sur-Choisille","lat":47.43186,"lon":0.64134},{"name":"La M\u00e9nitr\u00e9","lat":47.39722,"lon":-0.27559},{"name":"La Meyze","lat":45.62104,"lon":1.21235},{"name":"La Miouze-Rochefort","lat":45.7638,"lon":2.82798},{"name":"La Mothe-Achard","lat":46.60679,"lon":-1.65949},{"name":"La Mothe-St-H\u00e9ray","lat":46.38092,"lon":-0.12986},{"name":"La Neuville-sous-Laon","lat":49.57102,"lon":3.59723},{"name":"La Pauline-Hy\u00e8res","lat":43.1364,"lon":6.03502},{"name":"La Penne-sur-Huveaune","lat":43.28467,"lon":5.51544},{"name":"La Plaine-Stade-de-France","lat":48.91796,"lon":2.36254},{"name":"La Pointe-de-Grave","lat":45.56606,"lon":-1.06566},{"name":"La Pomme","lat":43.2905,"lon":5.44156},{"name":"La Porcherie","lat":45.57457,"lon":1.53746},{"name":"La Possonni\u00e8re","lat":47.37131,"lon":-0.69168},{"name":"La Poterie","lat":48.09207,"lon":-1.63078},{"name":"La Redonne-Ensu\u00e8s","lat":43.33419,"lon":5.19793},{"name":"La R\u00e9ole","lat":44.57984,"lon":-0.03037},{"name":"La Ricamarie","lat":45.40341,"lon":4.35815},{"name":"La Rivi\u00e8re","lat":46.87011,"lon":6.21344},{"name":"La Rivi\u00e8re-de-Mansac","lat":45.13971,"lon":1.36507},{"name":"La Roche","lat":48.46772,"lon":-4.21734},{"name":"La Roche-en-Brenil","lat":47.38501,"lon":4.17033},{"name":"La Rochefoucauld","lat":45.74022,"lon":0.38978},{"name":"La Rochelle Porte Dauphine","lat":0,"lon":0},{"name":"La Rochelle-Ville","lat":46.1527,"lon":-1.14529},{"name":"La Roche-sur-Foron","lat":46.06726,"lon":6.30396},{"name":"La Roche-sur-Yon","lat":46.67156,"lon":-1.4359},{"name":"La Rotonde","lat":45.76798,"lon":3.0902},{"name":"La Seyne-Six Fours","lat":43.11715,"lon":5.87679},{"name":"La Souterraine","lat":46.23998,"lon":1.49241},{"name":"La Suze","lat":47.89244,"lon":0.02692},{"name":"La Taye","lat":48.40727,"lon":1.37281},{"name":"La Teste","lat":44.63719,"lon":-1.14295},{"name":"Latour-de-Carol-Enveitg","lat":42.45814,"lon":1.90586},{"name":"La Tour-de-Salvagny","lat":45.7997,"lon":4.71677},{"name":"La Tour-du-Pin","lat":45.56021,"lon":5.44926},{"name":"La Tricherie","lat":46.72867,"lon":0.44047},{"name":"La Trinit\u00e9-Victor","lat":43.74272,"lon":7.31159},{"name":"La Valbonne","lat":45.84899,"lon":5.12431},{"name":"La Vavrette-Tossiat","lat":46.13282,"lon":5.2875},{"name":"La Verpilli\u00e8re","lat":45.6274,"lon":5.1508},{"name":"La Verri\u00e8re","lat":48.75539,"lon":1.94416},{"name":"La Ville-Gozet","lat":46.34983,"lon":2.59181},{"name":"La Villetertre","lat":49.20247,"lon":1.92047},{"name":"La Villette-St-Prest","lat":48.48237,"lon":1.52346},{"name":"La Wantzenau","lat":48.66506,"lon":7.82445},{"name":"Labarre","lat":47.15327,"lon":5.69393},{"name":"Labarthe-Inard","lat":43.10504,"lon":0.85276},{"name":"Lab\u00e8ge-Innopole","lat":43.5481,"lon":1.5121},{"name":"Lab\u00e8ge-Village","lat":43.5308,"lon":1.53239},{"name":"Labenne","lat":43.58714,"lon":-1.42878},{"name":"Laboissi\u00e8re-le-D\u00e9luge","lat":49.28818,"lon":2.13647},{"name":"Labouheyre","lat":44.21104,"lon":-0.92134},{"name":"Labrugui\u00e8re","lat":43.53761,"lon":2.25983},{"name":"Lachaud-Curmilhac","lat":45.12166,"lon":3.61003},{"name":"Lacourtensourt","lat":43.66387,"lon":1.4138},{"name":"Lafarge","lat":45.63416,"lon":1.13061},{"name":"Lagny-Thorigny","lat":48.88218,"lon":2.70404},{"name":"Lagu\u00e9pie","lat":44.14563,"lon":1.96811},{"name":"Laifour","lat":49.9115,"lon":4.69286},{"name":"L'Aigle","lat":48.76669,"lon":0.62074},{"name":"Laign\u00e9-St-Gervais","lat":47.87349,"lon":0.21747},{"name":"Laigneville","lat":49.29295,"lon":2.44926},{"name":"L'Aiguille","lat":45.77881,"lon":1.20682},{"name":"Laill\u00e9","lat":47.97061,"lon":-1.74955},{"name":"Laissac","lat":44.37531,"lon":2.82225},{"name":"Laissey","lat":47.29938,"lon":6.2338},{"name":"Lalande-\u00c9glise","lat":43.64571,"lon":1.42859},{"name":"Lalbenque-Fontanes","lat":44.33364,"lon":1.51172},{"name":"Lalinde","lat":44.83965,"lon":0.74272},{"name":"Lamagist\u00e8re","lat":44.12671,"lon":0.82548},{"name":"Lamanon","lat":43.70039,"lon":5.09131},{"name":"Lamarche","lat":48.09011,"lon":5.76014},{"name":"Lamativie","lat":44.98056,"lon":2.02985},{"name":"Lamballe","lat":48.46592,"lon":-2.51149},{"name":"Lamonzie-St-Martin","lat":44.84342,"lon":0.38032},{"name":"Lamothe-Landerron","lat":44.56198,"lon":0.04644},{"name":"Lamothe-Montravel","lat":44.85388,"lon":0.02147},{"name":"Lamotte-Beuvron","lat":47.59363,"lon":2.02221},{"name":"Lamotte-Brebi\u00e8re","lat":49.88561,"lon":2.39817},{"name":"Lamure-sur-Azergues","lat":46.06122,"lon":4.49228},{"name":"Lancerf","lat":48.76186,"lon":-3.11798},{"name":"Lancey","lat":45.23449,"lon":5.88076},{"name":"Landas","lat":50.46892,"lon":3.29008},{"name":"Landaul-Mendon","lat":47.73586,"lon":-3.08621},{"name":"Land\u00e9bia","lat":48.50736,"lon":-2.33171},{"name":"Landerneau","lat":48.45371,"lon":-4.2566},{"name":"Land\u00e9vant","lat":47.75948,"lon":-3.12568},{"name":"Landivisiau","lat":48.49562,"lon":-4.0827},{"name":"Landrecies","lat":50.12857,"lon":3.6821},{"name":"Landry","lat":45.57476,"lon":6.73412},{"name":"Laneuveville-devant-Nancy","lat":48.65571,"lon":6.22769},{"name":"Langeac","lat":45.10075,"lon":3.49052},{"name":"Langeais","lat":47.32395,"lon":0.41033},{"name":"Langogne","lat":44.73233,"lon":3.85787},{"name":"Langon","lat":44.55573,"lon":-0.25585},{"name":"Langres","lat":47.87723,"lon":5.34471},{"name":"Lannemezan","lat":43.11424,"lon":0.38758},{"name":"Lannion","lat":48.72696,"lon":-3.46066},{"name":"Lantenay","lat":47.3352,"lon":4.86036},{"name":"Laon","lat":49.57087,"lon":3.62379},{"name":"Lapalisse-Saint-Prix","lat":46.22961,"lon":3.63031},{"name":"Lapeyrouse","lat":46.22712,"lon":2.89388},{"name":"Laqueuille","lat":45.64328,"lon":2.70275},{"name":"Laragne","lat":44.31648,"lon":5.81914},{"name":"L'Arbresle","lat":45.83333,"lon":4.61913},{"name":"Larche","lat":45.13211,"lon":1.41621},{"name":"Lardenne","lat":43.59653,"lon":1.38399},{"name":"Lardy","lat":48.52079,"lon":2.25518},{"name":"L'Argenti\u00e8re les Ecrins","lat":44.79103,"lon":6.55608},{"name":"L'Ariane la Trinit\u00e9","lat":43.73416,"lon":7.3022},{"name":"Laroche Migennes","lat":47.96119,"lon":3.51308},{"name":"Laroque","lat":44.28802,"lon":0.75009},{"name":"Laroquebrou","lat":44.9642,"lon":2.19285},{"name":"Lathus","lat":46.33874,"lon":0.96418},{"name":"Lauterbourg","lat":48.96724,"lon":8.1828},{"name":"Laval","lat":48.07632,"lon":-0.76115},{"name":"Laval-de-C\u00e8re","lat":44.95111,"lon":1.93181},{"name":"Lavaufranche","lat":46.32141,"lon":2.27034},{"name":"Lavaur","lat":43.70363,"lon":1.81297},{"name":"Lavaveix-les-Mines","lat":46.07958,"lon":2.08903},{"name":"Laveline-devant-Bruy\u00e8res","lat":48.18552,"lon":6.75401},{"name":"Lavilledieu","lat":44.03546,"lon":1.21457},{"name":"Lavo\u00fbte-sur-Loire","lat":45.12151,"lon":3.90631},{"name":"Le Blanc-Mesnil","lat":48.93223,"lon":2.47687},{"name":"Le Bosquet","lat":43.55226,"lon":6.98148},{"name":"Boucau","lat":43.5235,"lon":-1.49063},{"name":"Le Bourget","lat":48.93079,"lon":2.42565},{"name":"Le Bousquet-d'Orb","lat":43.68997,"lon":3.16997},{"name":"Le Bras-de-fer","lat":48.62325,"lon":2.45088},{"name":"Le Breuil-sur-Couze","lat":45.46775,"lon":3.262},{"name":"Le Bruel","lat":44.48108,"lon":3.35818},{"name":"Le Buet","lat":46.01937,"lon":6.92057},{"name":"Le Bugue","lat":44.90597,"lon":0.94259},{"name":"Le Buisson","lat":44.847,"lon":0.90802},{"name":"Le Burg","lat":45.21496,"lon":1.43018},{"name":"Le Cailar","lat":43.6832,"lon":4.23477},{"name":"Le Canet","lat":43.33364,"lon":5.38348},{"name":"Le Cateau","lat":50.09116,"lon":3.54062},{"name":"Le Cellier","lat":47.3131,"lon":-1.35116},{"name":"Le Cendre-Orcet","lat":45.72399,"lon":3.18869},{"name":"Le Chambon-Feugerolles","lat":45.39476,"lon":4.32252},{"name":"Le Coteau","lat":46.02356,"lon":4.08632},{"name":"Le Creusot","lat":46.80779,"lon":4.43069},{"name":"Le Creusot TGV (Monceau Montchanin)","lat":46.76533,"lon":4.5001},{"name":"Le Croisic","lat":47.28974,"lon":-2.50691},{"name":"Le Dorat","lat":46.21031,"lon":1.07976},{"name":"Le Dramont","lat":43.41734,"lon":6.83855},{"name":"Le Genest","lat":48.09666,"lon":-0.88586},{"name":"Le Grand-Jardin","lat":49.14997,"lon":0.22723},{"name":"Le Grand-Lemps","lat":45.39663,"lon":5.42319},{"name":"Le Grau-du-Roi","lat":43.53658,"lon":4.14087},{"name":"Le Haut-Banc","lat":50.81619,"lon":1.77182},{"name":"Le Havre","lat":49.493,"lon":0.12592},{"name":"Le Havre-Graville (IE)","lat":49.49987,"lon":0.16049},{"name":"Le Lioran","lat":45.09153,"lon":2.75687},{"name":"Le Luc-et-Le Cannet","lat":43.38987,"lon":6.34272},{"name":"Le Mans","lat":47.99489,"lon":0.19431},{"name":"Le M\u00e9e","lat":48.54003,"lon":2.62377},{"name":"Le M\u00e9ridien","lat":45.76887,"lon":4.74826},{"name":"Le Merlerault","lat":48.70242,"lon":0.28351},{"name":"Le Meux-la-Croix-St-Ouen","lat":49.35873,"lon":2.7525},{"name":"Le Molay-Littry","lat":49.24913,"lon":-0.88181},{"name":"Le Monastier","lat":44.50917,"lon":3.25234},{"name":"Le Mont-Dore","lat":45.57985,"lon":2.80419},{"name":"Le Palais","lat":45.88491,"lon":1.34567},{"name":"Le Pallet","lat":47.14423,"lon":-1.34779},{"name":"Le P\u00e9age-de-Roussillon","lat":45.37178,"lon":4.79497},{"name":"Le P\u00e9nity","lat":48.36418,"lon":-3.47667},{"name":"Le Perray","lat":48.69474,"lon":1.85705},{"name":"Le Plessis-Belleville","lat":49.09612,"lon":2.74467},{"name":"Le Plessis-Chenet","lat":48.57383,"lon":2.4795},{"name":"Le Poirier","lat":50.33083,"lon":3.5028},{"name":"Le Ponthou","lat":48.56823,"lon":-3.63687},{"name":"Le Pouliguen","lat":47.28245,"lon":-2.43413},{"name":"Le Puy en Velay","lat":45.04273,"lon":3.89253},{"name":"Le Quesnoy (Nord)","lat":50.25022,"lon":3.64608},{"name":"Le Raincy-Villemomble-Montfermeil","lat":48.88911,"lon":2.51208},{"name":"Le Rouget","lat":44.85737,"lon":2.23562},{"name":"Le Sablon","lat":45.6075,"lon":4.79637},{"name":"Le Saut-du-Loup","lat":45.45275,"lon":3.30221},{"name":"Le Soler","lat":42.67865,"lon":2.79276},{"name":"Le Stade","lat":48.93123,"lon":2.26066},{"name":"Le T.O.E.C. (Toulouse Olympique Employ\u00e9s Club)","lat":43.59544,"lon":1.40133},{"name":"Le Teich","lat":44.63241,"lon":-1.02583},{"name":"Le Teil (Ard\u00e8che)","lat":44.55319,"lon":4.68665},{"name":"Le Theil-de-Bretagne","lat":47.91872,"lon":-1.43237},{"name":"Le Theil-La Rouge","lat":48.26723,"lon":0.69465},{"name":"Le Thor","lat":43.92643,"lon":4.99603},{"name":"Le Trayas","lat":43.4741,"lon":6.92333},{"name":"Le Tr\u00e9port-Mers les Bains","lat":50.06273,"lon":1.37652},{"name":"Le Valdahon","lat":47.14979,"lon":6.34111},{"name":"Val d'Argenteuil","lat":48.95024,"lon":2.23075},{"name":"Le Val-d'Or","lat":48.85699,"lon":2.21652},{"name":"Le Vauriat","lat":45.86033,"lon":2.9205},{"name":"Le Verdon","lat":45.54906,"lon":-1.06612},{"name":"Le Vert-de-Maisons","lat":48.78822,"lon":2.43211},{"name":"Le Vieux-Briollay","lat":47.57342,"lon":-0.48295},{"name":"Leforest","lat":50.42756,"lon":3.05953},{"name":"Lemberg (Moselle)","lat":49.00072,"lon":7.3801},{"name":"Lens","lat":50.42694,"lon":2.82712},{"name":"Lentilly","lat":45.8218,"lon":4.66719},{"name":"L\u00e9panges","lat":48.17254,"lon":6.67206},{"name":"L\u00e9pin-le-Lac-La Bauche","lat":45.54164,"lon":5.76418},{"name":"Les Abrets-Fitilieu","lat":45.54216,"lon":5.57571},{"name":"Les Arcs-Draguignan","lat":43.45549,"lon":6.48235},{"name":"Les Ardoines","lat":48.78426,"lon":2.40925},{"name":"Les Aubrais-Orl\u00e9ans","lat":47.92705,"lon":1.90649},{"name":"Les Bardys","lat":45.90384,"lon":1.37681},{"name":"Les Bons-P\u00e8res","lat":50.27981,"lon":4.01069},{"name":"Les Bossons","lat":45.90689,"lon":6.83882},{"name":"Les Boullereaux-Champigny","lat":48.82493,"lon":2.51125},{"name":"Les Cabannes","lat":42.78651,"lon":1.68634},{"name":"Les Cabrils","lat":43.77722,"lon":3.18621},{"name":"Les Cauquillous","lat":43.73431,"lon":1.75457},{"name":"Les Champs-Forts","lat":48.89694,"lon":2.8058},{"name":"Les Clairi\u00e8res-de-Verneuil","lat":48.99272,"lon":1.95481},{"name":"Les Clouzeaux","lat":46.63784,"lon":-1.53352},{"name":"Les \u00c9chets","lat":45.87426,"lon":4.91055},{"name":"Les \u00c9glisottes","lat":45.09427,"lon":-0.04352},{"name":"Les Essarts-le-Roi","lat":48.7219,"lon":1.89007},{"name":"Les Eyzies","lat":44.94108,"lon":1.00828},{"name":"Les Flach\u00e8res","lat":45.77686,"lon":4.75401},{"name":"Les Fontinettes","lat":50.94027,"lon":1.84932},{"name":"Les Girarmes","lat":47.30762,"lon":2.91788},{"name":"Les Gr\u00e9sillons","lat":48.91886,"lon":2.31477},{"name":"Les Houches","lat":45.89374,"lon":6.79703},{"name":"Les Ifs","lat":49.70146,"lon":0.39014},{"name":"Les Islettes","lat":49.10638,"lon":5.00252},{"name":"Les Lacs","lat":48.10903,"lon":-1.3218},{"name":"Les Laumes-Al\u00e9sia","lat":47.54331,"lon":4.46287},{"name":"Les Longevilles-Rochejean","lat":46.75284,"lon":6.30434},{"name":"Les Mais","lat":48.42636,"lon":-3.38289},{"name":"Les Martres-de-Veyre","lat":45.68818,"lon":3.19355},{"name":"Les Mazes-le-Cr\u00e8s","lat":43.63928,"lon":3.93913},{"name":"Les Moussoux","lat":45.91605,"lon":6.8573},{"name":"Les Moutiers-en-Retz","lat":47.06194,"lon":-2.00167},{"name":"Les Mureaux","lat":48.99243,"lon":1.91304},{"name":"Les Noues","lat":49.03341,"lon":2.47833},{"name":"Les Ormes-sur-Vienne","lat":46.97079,"lon":0.60818},{"name":"Les P\u00e9lerins","lat":45.91244,"lon":6.84724},{"name":"Les Perri\u00e8res","lat":47.00593,"lon":3.14779},{"name":"Les Praz-de-Chamonix","lat":45.93975,"lon":6.88884},{"name":"Les Quatre-Roues","lat":47.33299,"lon":1.70352},{"name":"Les Quatre-Routes","lat":44.99703,"lon":1.6445},{"name":"Les ramassiers","lat":43.60236,"lon":1.35292},{"name":"Les Rosiers-sur-Loire","lat":47.36219,"lon":-0.22},{"name":"Les Sables-Blancs","lat":47.57532,"lon":-3.13258},{"name":"Les Sables-d'Olonne","lat":46.50014,"lon":-1.782},{"name":"Les Salelles","lat":44.4831,"lon":3.27962},{"name":"Les Saules","lat":48.74453,"lon":2.41709},{"name":"Les Tines","lat":45.95058,"lon":6.89912},{"name":"Les Trillers","lat":46.41456,"lon":2.59993},{"name":"Les Vall\u00e9es","lat":48.91365,"lon":2.25721},{"name":"Les Versannes","lat":45.08866,"lon":0.85722},{"name":"Les Yvris-Noisy-le-Grand","lat":48.82352,"lon":2.57932},{"name":"L'Escar\u00e8ne","lat":43.83822,"lon":7.35294},{"name":"Lesparre","lat":45.30371,"lon":-0.94572},{"name":"Lesquin","lat":50.59013,"lon":3.11868},{"name":"Lesseux-Frapelle","lat":48.289,"lon":7.07589},{"name":"L'Estaque","lat":43.3639,"lon":5.32162},{"name":"Lestelle","lat":43.11902,"lon":0.91305},{"name":"L'\u00c9tang-la-Ville","lat":48.86855,"lon":2.07761},{"name":"Leucate-la-Franqui","lat":42.93285,"lon":3.01275},{"name":"Leval","lat":50.1846,"lon":3.83637},{"name":"Lexos","lat":44.14223,"lon":1.88455},{"name":"Lezennes","lat":50.62057,"lon":3.10015},{"name":"L\u00e9zignan (Aude)","lat":43.19992,"lon":2.76958},{"name":"Lezoux","lat":45.82108,"lon":3.38595},{"name":"L'Herbergement-Les Brouzils","lat":46.90641,"lon":-1.37179},{"name":"L'Hermitage-Mordelles","lat":48.12317,"lon":-1.81918},{"name":"L'H\u00f4pital-du-Grosbois","lat":47.16911,"lon":6.21311},{"name":"L'Hospitalet-pr\u00e8s-l'Andorre","lat":42.58875,"lon":1.79946},{"name":"Liancourt-Rantigny","lat":49.32451,"lon":2.44565},{"name":"Liancourt-St-Pierre","lat":49.2204,"lon":1.90546},{"name":"Liart","lat":49.77101,"lon":4.33519},{"name":"Libercourt","lat":50.47976,"lon":3.0088},{"name":"Libourne","lat":44.9158,"lon":-0.23603},{"name":"Liernais","lat":47.21363,"lon":4.26719},{"name":"Liesle","lat":47.05854,"lon":5.8208},{"name":"Lieusaint-Moissy","lat":48.62786,"lon":2.57013},{"name":"Li\u00e9vin","lat":50.43417,"lon":2.77052},{"name":"Ligny-St-Flochel","lat":50.36599,"lon":2.41662},{"name":"Ligug\u00e9","lat":46.52215,"lon":0.33385},{"name":"Lille CHR","lat":50.61454,"lon":3.03409},{"name":"Lille-Europe","lat":50.63969,"lon":3.0749},{"name":"Lille-Flandres","lat":50.63577,"lon":3.07248},{"name":"Lille-Porte-de-Douai","lat":50.61237,"lon":3.07367},{"name":"Lillers","lat":50.56113,"lon":2.47914},{"name":"Limay","lat":48.98442,"lon":1.74697},{"name":"Limeray","lat":47.44985,"lon":1.04913},{"name":"Limersheim","lat":48.4611,"lon":7.65965},{"name":"Limeyrat","lat":45.1562,"lon":0.97787},{"name":"Limoges-B\u00e9n\u00e9dictins","lat":45.83722,"lon":1.26901},{"name":"Limoges-Montjovis","lat":45.83861,"lon":1.25156},{"name":"Limoux","lat":43.05648,"lon":2.223},{"name":"Limoux-Flassian","lat":43.06851,"lon":2.21852},{"name":"Lingolsheim","lat":48.55947,"lon":7.67868},{"name":"Lisieux","lat":49.13829,"lon":0.2315},{"name":"L'Isle-Adam-Parmain","lat":49.11463,"lon":2.20982},{"name":"L'Isle-d'Abeau","lat":45.60725,"lon":5.21954},{"name":"L'Isle-Fontaine-de-Vaucluse","lat":43.9171,"lon":5.04746},{"name":"L'Isle-Jourdain (Gers)","lat":43.61733,"lon":1.08973},{"name":"L'Isle-sur-le-Doubs","lat":47.44719,"lon":6.58151},{"name":"Lisle-sur-Tarn","lat":43.85623,"lon":1.80775},{"name":"Lison","lat":49.22687,"lon":-1.05355},{"name":"L'Isthme","lat":47.54644,"lon":-3.13376},{"name":"Liverdun","lat":48.74925,"lon":6.06153},{"name":"Livron","lat":44.77737,"lon":4.82807},{"name":"Livry-sur-Seine","lat":48.51035,"lon":2.67906},{"name":"Lizy-sur-Ourcq","lat":49.02189,"lon":3.03194},{"name":"Loches","lat":47.1304,"lon":1.00098},{"name":"Logelbach","lat":48.08715,"lon":7.32154},{"name":"Loison","lat":50.44012,"lon":2.85901},{"name":"Loivre","lat":49.34675,"lon":3.99042},{"name":"Longages-No\u00e9","lat":43.35621,"lon":1.25199},{"name":"Longecourt","lat":47.19354,"lon":5.13474},{"name":"Longjumeau","lat":48.70193,"lon":2.29743},{"name":"Longpont","lat":49.27271,"lon":3.22979},{"name":"Longpr\u00e9-les-Corps-Saints","lat":50.01143,"lon":2.00317},{"name":"Longroy-Gamaches","lat":49.98245,"lon":1.55197},{"name":"Longueau","lat":49.86432,"lon":2.35207},{"name":"Longueil-Annel","lat":49.46699,"lon":2.86316},{"name":"Longueil-Ste-Marie","lat":49.34234,"lon":2.71609},{"name":"Longuerue-Vieux-Manoir","lat":49.55625,"lon":1.27622},{"name":"Longueville (Seine-et-Marne)","lat":48.51549,"lon":3.24788},{"name":"Longueville-sur-Scie","lat":49.79182,"lon":1.1105},{"name":"Longuyon","lat":49.44718,"lon":5.6036},{"name":"Longwy","lat":49.51256,"lon":5.76916},{"name":"Lons-le-Saunier","lat":46.66844,"lon":5.55082},{"name":"Loos-en-Gohelle","lat":50.43781,"lon":2.79228},{"name":"Loos-les-Lille","lat":50.61283,"lon":3.0175},{"name":"Loreux","lat":47.38985,"lon":1.83186},{"name":"Lorient","lat":47.75555,"lon":-3.36565},{"name":"Loriol","lat":44.75458,"lon":4.81686},{"name":"Lothiers","lat":46.6944,"lon":1.56262},{"name":"Louhans","lat":46.63075,"lon":5.21712},{"name":"Louhossoa","lat":43.30594,"lon":-1.36256},{"name":"Loulay","lat":46.04351,"lon":-0.50188},{"name":"Lourches","lat":50.31024,"lon":3.34339},{"name":"Lourdes","lat":43.1006,"lon":-0.04181},{"name":"Loures-Barbazan","lat":43.02114,"lon":0.61046},{"name":"Louroux-de-Bouble","lat":46.22411,"lon":2.98431},{"name":"Louveciennes","lat":48.86124,"lon":2.12272},{"name":"Louvern\u00e9","lat":48.10874,"lon":-0.71431},{"name":"Louvres","lat":49.0492,"lon":2.50176},{"name":"Louvroil","lat":50.26806,"lon":3.95304},{"name":"Lozanne","lat":45.85417,"lon":4.68266},{"name":"Luant","lat":46.73514,"lon":1.58966},{"name":"Lubersac","lat":45.44528,"lon":1.38841},{"name":"Luc (Loz\u00e8re)","lat":44.65409,"lon":3.89112},{"name":"Lu\u00e7ay-le-M\u00e2le","lat":47.13515,"lon":1.43986},{"name":"Luc\u00e9","lat":48.43601,"lon":1.45279},{"name":"Luc-en-Diois","lat":44.61374,"lon":5.45481},{"name":"Luchon","lat":42.79729,"lon":0.59661},{"name":"Lu\u00e7on","lat":46.46381,"lon":-1.16745},{"name":"Luc-Primaube","lat":44.29113,"lon":2.55433},{"name":"Lucy-sur-Cure-Bessy","lat":47.62806,"lon":3.74579},{"name":"Ludon","lat":44.97424,"lon":-0.61183},{"name":"Ludres","lat":48.62157,"lon":6.16995},{"name":"Lumes","lat":49.73318,"lon":4.78288},{"name":"Lunas","lat":43.70829,"lon":3.19303},{"name":"Lunel","lat":43.67952,"lon":4.13082},{"name":"Lunel-Viel","lat":43.68094,"lon":4.09331},{"name":"Lunery","lat":46.93514,"lon":2.27509},{"name":"Lun\u00e9ville","lat":48.58775,"lon":6.49714},{"name":"Lure","lat":47.68296,"lon":6.49275},{"name":"Lusignan","lat":46.435,"lon":0.11577},{"name":"Lus-la-Croix-Haute","lat":44.67112,"lon":5.69727},{"name":"Lussac-les-Ch\u00e2teaux","lat":46.40519,"lon":0.719},{"name":"Luttenbach-pr\u00e8s-Munster","lat":48.03563,"lon":7.11959},{"name":"Lutterbach (Haut-Rhin)","lat":47.75791,"lon":7.27675},{"name":"Lutzelbourg","lat":48.72966,"lon":7.25162},{"name":"Lutzelhouse","lat":48.51796,"lon":7.29384},{"name":"Lux\u00e9","lat":45.88722,"lon":0.10916},{"name":"Luxeuil-les-Bains","lat":47.81517,"lon":6.37187},{"name":"Luzarches","lat":49.11772,"lon":2.42158},{"name":"Luzenac-Garanou","lat":42.76445,"lon":1.75316},{"name":"Luzy (Ni\u00e8vre)","lat":46.79422,"lon":3.96941},{"name":"Lyon-Gorge-de-Loup","lat":45.76591,"lon":4.80398},{"name":"Lyon-Part-Dieu","lat":45.76033,"lon":4.86051},{"name":"Lyon-Perrache-Voyageurs","lat":45.74866,"lon":4.82556},{"name":"Lyon-St-Exup\u00e9ry-TGV","lat":45.72096,"lon":5.07579},{"name":"Lyon-St-Paul","lat":45.76635,"lon":4.82558},{"name":"Lyon-Vaise","lat":45.77974,"lon":4.80288},{"name":"Macau","lat":45.00419,"lon":-0.61987},{"name":"Machecoul","lat":46.99032,"lon":-1.82247},{"name":"Machilly","lat":46.25084,"lon":6.32776},{"name":"M\u00e2con-Loch\u00e9-TGV","lat":46.28253,"lon":4.77888},{"name":"M\u00e2con-Ville","lat":46.3029,"lon":4.82448},{"name":"Magalas","lat":43.46784,"lon":3.22944},{"name":"Magenta","lat":48.88034,"lon":2.35837},{"name":"Magland","lat":46.01673,"lon":6.62176},{"name":"Magnac-Vicq","lat":45.62838,"lon":1.44399},{"name":"Magnette","lat":46.46403,"lon":2.60286},{"name":"Magneux-Courlandon","lat":49.31,"lon":3.73316},{"name":"Magny-Blandainville","lat":48.33442,"lon":1.28107},{"name":"Maill\u00e9","lat":47.05296,"lon":0.58301},{"name":"Mailly-la-Ville","lat":47.60436,"lon":3.67508},{"name":"Maintenon","lat":48.58538,"lon":1.59246},{"name":"Maison-Dieu (Yonne)","lat":47.50299,"lon":4.02123},{"name":"Maisons-Alfort-Alfortville","lat":48.80202,"lon":2.42642},{"name":"Maisons-Laffitte","lat":48.94595,"lon":2.14419},{"name":"Maisse","lat":48.39302,"lon":2.39297},{"name":"Maizi\u00e8res-l\u00e8s-Metz","lat":49.21611,"lon":6.1583},{"name":"Malain","lat":47.32729,"lon":4.80949},{"name":"Malansac","lat":47.67543,"lon":-2.29574},{"name":"Malaunay-Le Houlme","lat":49.51324,"lon":1.04012},{"name":"Malause","lat":44.08824,"lon":0.97153},{"name":"Malesherbes","lat":48.29325,"lon":2.40119},{"name":"Malling","lat":49.41985,"lon":6.29941},{"name":"Mamirolle","lat":47.20035,"lon":6.16289},{"name":"Mandelieu-la-Napoule","lat":43.52431,"lon":6.94156},{"name":"Manduel-Redessan","lat":43.82647,"lon":4.47888},{"name":"Manlay","lat":47.13256,"lon":4.32654},{"name":"Manosque-Gr\u00e9oux-les-Bains","lat":43.82316,"lon":5.79359},{"name":"Mantes-la-Jolie","lat":48.98954,"lon":1.70334},{"name":"Mantes-Station","lat":48.98463,"lon":1.71391},{"name":"Marbache","lat":48.80071,"lon":6.10918},{"name":"Marcelcave","lat":49.85323,"lon":2.58207},{"name":"Marcheprime","lat":44.69048,"lon":-0.85372},{"name":"Marchezais-Brou\u00e9","lat":48.76845,"lon":1.5134},{"name":"Mareil-Marly","lat":48.88078,"lon":2.07926},{"name":"Mareil-sur-Mauldre","lat":48.8939,"lon":1.87138},{"name":"Maresquel","lat":50.40817,"lon":1.92969},{"name":"Mareuil-sur-Ourcq","lat":49.13538,"lon":3.07527},{"name":"Margaux","lat":45.03575,"lon":-0.6856},{"name":"Margival","lat":49.43927,"lon":3.40289},{"name":"Marienthal","lat":48.78181,"lon":7.82336},{"name":"Marignac-St-B\u00e9at","lat":42.91555,"lon":0.65201},{"name":"Marignier","lat":46.08879,"lon":6.50583},{"name":"Marigny (Deux-S\u00e8vres)","lat":46.19903,"lon":-0.42862},{"name":"Marles-en-Brie","lat":48.73427,"lon":2.8675},{"name":"Marle-sur-Serre","lat":49.74726,"lon":3.76969},{"name":"Marlieux-Ch\u00e2tillon","lat":46.06436,"lon":5.07353},{"name":"Marly-le-Roi","lat":48.8716,"lon":2.09617},{"name":"Marmagne","lat":47.0997,"lon":2.28322},{"name":"Marmagne-sous-Creusot","lat":46.83354,"lon":4.35963},{"name":"Marmande","lat":44.5032,"lon":0.16798},{"name":"Marne-la-Vall\u00e9e-Chessy","lat":48.86995,"lon":2.78268},{"name":"Maroeuil","lat":50.3232,"lon":2.69769},{"name":"Marolles-en-Hurepoix","lat":48.56534,"lon":2.29089},{"name":"Maromme","lat":49.47995,"lon":1.05086},{"name":"Marquette","lat":50.67287,"lon":3.04983},{"name":"Marquillies","lat":50.54806,"lon":2.86761},{"name":"Marquise-Rinxent","lat":50.80525,"lon":1.73132},{"name":"Marquixanes","lat":42.64296,"lon":2.48575},{"name":"Marsac (Creuse)","lat":46.094,"lon":1.58633},{"name":"Marsac (Dordogne)","lat":45.18596,"lon":0.66246},{"name":"Marseillan-Plage","lat":43.31817,"lon":3.53542},{"name":"Marseille-Blancarde","lat":43.29614,"lon":5.40656},{"name":"Marseille-en-Beauvaisis","lat":49.57079,"lon":1.95499},{"name":"Marseille-St-Charles","lat":43.30356,"lon":5.38142},{"name":"Marssac-sur-Tarn","lat":43.91511,"lon":2.02677},{"name":"Martign\u00e9-Ferchaud","lat":47.83198,"lon":-1.31372},{"name":"Martigny-les-Bains","lat":48.10895,"lon":5.82563},{"name":"Martigues","lat":43.39224,"lon":5.02486},{"name":"Martres-Tolosane","lat":43.19615,"lon":1.01656},{"name":"Marvejols","lat":44.54352,"lon":3.27929},{"name":"Mass\u00e9rac","lat":47.6746,"lon":-1.91442},{"name":"Masseret","lat":45.53636,"lon":1.54168},{"name":"Massiac","lat":45.25315,"lon":3.19643},{"name":"Massy-Palaiseau-Grande-Ceinture","lat":48.72412,"lon":2.25594},{"name":"Massy-TGV","lat":48.72865,"lon":2.26496},{"name":"Massy-Verri\u00e8res","lat":48.73529,"lon":2.27454},{"name":"Matzenheim","lat":48.39899,"lon":7.61963},{"name":"Maubeuge","lat":50.27251,"lon":3.96634},{"name":"Maule","lat":48.90906,"lon":1.85771},{"name":"Maurecourt","lat":48.98736,"lon":2.06017},{"name":"Maurois","lat":50.0675,"lon":3.45623},{"name":"Maurs","lat":44.70568,"lon":2.19925},{"name":"Mauves-sur-Loire","lat":47.29281,"lon":-1.38928},{"name":"Mauzac","lat":44.8557,"lon":0.78962},{"name":"Mauz\u00e9","lat":46.19984,"lon":-0.67389},{"name":"Mauzens-Miremont","lat":44.97737,"lon":0.95685},{"name":"Mayet","lat":47.75949,"lon":0.26565},{"name":"Mazamet","lat":43.49729,"lon":2.3759},{"name":"Mazingarbe","lat":50.46115,"lon":2.69965},{"name":"Meaux","lat":48.95686,"lon":2.87316},{"name":"Mehun-sur-Y\u00e8vre","lat":47.13898,"lon":2.20723},{"name":"Melun","lat":48.52723,"lon":2.65577},{"name":"Menars","lat":47.64516,"lon":1.4059},{"name":"Mende","lat":44.52233,"lon":3.50191},{"name":"M\u00e9nerville","lat":48.96664,"lon":1.60151},{"name":"M\u00e9nil-Flin","lat":48.50482,"lon":6.65971},{"name":"Mennecy","lat":48.57089,"lon":2.43275},{"name":"Mennessis","lat":49.69207,"lon":3.27027},{"name":"Mennetou-sur-Cher","lat":47.26908,"lon":1.87643},{"name":"Menton","lat":43.77464,"lon":7.49344},{"name":"Menton-Garavan","lat":43.7851,"lon":7.51707},{"name":"Mer (Loir-et-Cher)","lat":47.70604,"lon":1.50625},{"name":"M\u00e9rens-les-Vals","lat":42.65933,"lon":1.837},{"name":"M\u00e9renvielle","lat":43.63664,"lon":1.15078},{"name":"M\u00e9ricourt-Ribemont","lat":49.95555,"lon":2.57236},{"name":"M\u00e9riel","lat":49.07701,"lon":2.20481},{"name":"Merrey (Haute-Marne)","lat":48.05395,"lon":5.59476},{"name":"Mertzwiller","lat":48.872,"lon":7.67836},{"name":"M\u00e9ru","lat":49.23293,"lon":2.13226},{"name":"Mervans","lat":46.7988,"lon":5.17939},{"name":"Merxheim","lat":47.91311,"lon":7.30241},{"name":"M\u00e9ry","lat":49.05711,"lon":2.19058},{"name":"Messac-Guipry","lat":47.82222,"lon":-1.81866},{"name":"Messein","lat":48.613,"lon":6.13764},{"name":"Mesves-Bulcy","lat":47.24171,"lon":3.00671},{"name":"Mesvres","lat":46.863,"lon":4.24392},{"name":"Metzeral","lat":48.01389,"lon":7.0734},{"name":"Metzervisse","lat":49.31818,"lon":6.28376},{"name":"Metz-Nord","lat":49.13694,"lon":6.1671},{"name":"Metz-Ville","lat":49.10921,"lon":6.17778},{"name":"Meudon","lat":48.81479,"lon":2.24084},{"name":"Meudon-Val-Fleury","lat":48.80845,"lon":2.24172},{"name":"Meulan-Hardricourt","lat":49.00578,"lon":1.90171},{"name":"Meung-sur-Loire","lat":47.82998,"lon":1.69176},{"name":"Meurchin","lat":50.49753,"lon":2.89328},{"name":"Meursault","lat":46.96917,"lon":4.7954},{"name":"Meximieux-P\u00e9rouges","lat":45.90169,"lon":5.19355},{"name":"Meymac","lat":45.52923,"lon":2.16087},{"name":"Meyrargues","lat":43.6442,"lon":5.53947},{"name":"M\u00e9z\u00e9riat","lat":46.2349,"lon":5.04678},{"name":"M\u00e9zidon","lat":49.07088,"lon":-0.075},{"name":"Mignaloux-Nouaill\u00e9","lat":46.52621,"lon":0.41172},{"name":"Milhac-d'Auberoche","lat":45.12902,"lon":0.91789},{"name":"Milhaud","lat":43.78842,"lon":4.30308},{"name":"Millas","lat":42.68825,"lon":2.69549},{"name":"Millau","lat":44.10172,"lon":3.07378},{"name":"Milly-sur-Th\u00e9rain","lat":49.50498,"lon":1.98904},{"name":"Miniac","lat":48.53153,"lon":-1.91503},{"name":"Mionnay","lat":45.89691,"lon":4.9195},{"name":"Miramas","lat":43.58095,"lon":4.99933},{"name":"Miraumont","lat":50.0961,"lon":2.73468},{"name":"Mirecourt","lat":48.2997,"lon":6.12877},{"name":"Miribel","lat":45.82182,"lon":4.95375},{"name":"Mitry-Claye","lat":48.97587,"lon":2.64234},{"name":"Modane","lat":45.19352,"lon":6.65943},{"name":"Mohon","lat":49.75264,"lon":4.73328},{"name":"Moirans","lat":45.32203,"lon":5.58186},{"name":"Moirans-la-Galifette","lat":45.32395,"lon":5.56374},{"name":"Moissac","lat":44.10253,"lon":1.0774},{"name":"Moli\u00e8res-sur-C\u00e8ze","lat":44.25987,"lon":4.15929},{"name":"Molsheim","lat":48.53751,"lon":7.50018},{"name":"Mommenheim","lat":48.75565,"lon":7.64212},{"name":"Monestier-de-Clermont","lat":44.91176,"lon":5.6337},{"name":"Mon\u00e9teau-Gurgy","lat":47.85071,"lon":3.58001},{"name":"Monistrol-d'Allier","lat":44.96965,"lon":3.65047},{"name":"Monnaie","lat":47.49926,"lon":0.79398},{"name":"Monnerville","lat":48.34878,"lon":2.03271},{"name":"Monsempron-Libos","lat":44.48656,"lon":0.94113},{"name":"Montaignac-St-Hippolyte","lat":45.3546,"lon":1.97954},{"name":"Montaigut","lat":46.13685,"lon":1.73477},{"name":"Montaigu-Vend\u00e9e","lat":46.98375,"lon":-1.31648},{"name":"Montargis","lat":48.00716,"lon":2.743},{"name":"Montastruc-la-Conseill\u00e8re","lat":43.716,"lon":1.5979},{"name":"Montataire","lat":49.25119,"lon":2.43695},{"name":"Montauban-de-Bretagne","lat":48.1899,"lon":-2.0531},{"name":"Montauban-Ville-Bourbon","lat":44.01632,"lon":1.33882},{"name":"Montaudran","lat":43.57371,"lon":1.48},{"name":"Montaut-B\u00e9tharram","lat":43.12691,"lon":-0.19822},{"name":"Montbard","lat":47.61872,"lon":4.33616},{"name":"Montbarrey","lat":47.03618,"lon":5.6363},{"name":"Montbartier","lat":43.92413,"lon":1.26457},{"name":"Montbazon","lat":47.29165,"lon":0.72151},{"name":"Montb\u00e9liard","lat":47.51036,"lon":6.80165},{"name":"Montbeugny","lat":46.53291,"lon":3.49246},{"name":"Montbizot","lat":48.1514,"lon":0.19075},{"name":"Montbr\u00e9","lat":49.19381,"lon":4.03868},{"name":"Montbrison","lat":45.60505,"lon":4.07836},{"name":"Montcaret","lat":44.85506,"lon":0.06265},{"name":"Montceau-les-Mines","lat":46.67105,"lon":4.36205},{"name":"Montchanin","lat":46.75902,"lon":4.48292},{"name":"Montdauphin-Guillestre","lat":44.67406,"lon":6.61559},{"name":"Mont-de-Marsan","lat":43.88473,"lon":-0.50434},{"name":"Mont-de-Terre","lat":50.61784,"lon":3.09652},{"name":"Montdidier","lat":49.64143,"lon":2.56189},{"name":"Mont\u00e9limar","lat":44.55907,"lon":4.74469},{"name":"Montendre","lat":45.2806,"lon":-0.39605},{"name":"Montereau","lat":48.37959,"lon":2.94277},{"name":"Mont\u00e9rolier-Buchy","lat":49.60302,"lon":1.33486},{"name":"Montescourt","lat":49.73781,"lon":3.25194},{"name":"Montfavet","lat":43.93265,"lon":4.87388},{"name":"Montferrand-Thoraise","lat":47.18483,"lon":5.90746},{"name":"Montfort-l'Amaury-M\u00e8re","lat":48.80278,"lon":1.81591},{"name":"Montfort-le-Gesnois","lat":48.04037,"lon":0.40566},